country,location,name,name_wo_diacritics,latitude,longitude,country_name
AE,ABU,Abu al Bukhoosh,Abu al Bukhoosh,25.483333333333334,53.13333333333333,UNITED ARAB EMIRATES
AE,AUH,Abu Dhabi,Abu Dhabi,24.466666666666665,54.36666666666667,UNITED ARAB EMIRATES
AE,AMU,Abu Musa,Abu Musa,25.866666666666667,55.016666666666666,UNITED ARAB EMIRATES
AE,ARP,Ahmed Bin Rashid Port,Ahmed Bin Rashid Port,25.533333333333335,55.55,UNITED ARAB EMIRATES
AE,FJR,Al Fujayrah,Al Fujayrah,25.116666666666667,56.333333333333336,UNITED ARAB EMIRATES
AE,JAZ,Al Jazeera Port,Al Jazeera Port,25.716666666666665,55.8,UNITED ARAB EMIRATES
AE,AJP,Al Jeer Port,Al Jeer Port,26.033333333333335,56.05,UNITED ARAB EMIRATES
AE,RUW,Ar Ruways,Ar Ruways,24.116666666666667,52.733333333333334,UNITED ARAB EMIRATES
AE,DBP,Dibba,Dibba,25.616666666666667,56.266666666666666,UNITED ARAB EMIRATES
AE,DXB,Dubai,Dubai,25.25,55.266666666666666,UNITED ARAB EMIRATES
AE,END,Esnnad,Esnnad,24.316666666666666,54.45,UNITED ARAB EMIRATES
AE,FRP,Free Port,Free Port,25.25,55.25,UNITED ARAB EMIRATES
AE,HZP,Hamriya Free Zone Port,Hamriya Free Zone Port,25.3,55.31666666666667,UNITED ARAB EMIRATES
AE,HSN,Hassyan,Hassyan,24.9,54.9,UNITED ARAB EMIRATES
AE,HTL,Hulaylah Terminal,Hulaylah Terminal,25.983333333333334,55.93333333333333,UNITED ARAB EMIRATES
AE,QWE,Jebel Ali Free Zone,Jebel Ali Free Zone,25.0,55.05,UNITED ARAB EMIRATES
AE,KLB,Kalba,Kalba,25.066666666666666,56.35,UNITED ARAB EMIRATES
AE,KLF,Khor al Fakkan,Khor al Fakkan,25.333333333333332,56.35,UNITED ARAB EMIRATES
AE,MKH,Mina Khalid,Mina Khalid,25.35,55.36666666666667,UNITED ARAB EMIRATES
AE,KHL,Mina Khalifa/Abu Dhabi,Mina Khalifa/Abu Dhabi,24.833333333333332,54.666666666666664,UNITED ARAB EMIRATES
AE,MRP,Mina Rashid Port,Mina Rashid Port,25.266666666666666,55.28333333333333,UNITED ARAB EMIRATES
AE,MZD,Mina Zayed/Abu Dhabi,Mina Zayed/Abu Dhabi,24.516666666666666,54.36666666666667,UNITED ARAB EMIRATES
AE,RFA,Mirfa,Mirfa,25.466666666666665,53.483333333333334,UNITED ARAB EMIRATES
AE,AMF,Mussafah,Mussafah,24.383333333333333,54.483333333333334,UNITED ARAB EMIRATES
AE,RKP,Rak Khor Port,Rak Khor Port,25.816666666666666,55.95,UNITED ARAB EMIRATES
AE,RMC,Rak Maritime City,Rak Maritime City,25.95,56.05,UNITED ARAB EMIRATES
AE,RKT,Ras al Khaimah,Ras al Khaimah,25.783333333333335,55.95,UNITED ARAB EMIRATES
AE,RWP,Ruwais Port,Ruwais Port,24.1,52.71666666666667,UNITED ARAB EMIRATES
AE,SID,Sadiyat Island,Sadiyat Island,24.533333333333335,54.4,UNITED ARAB EMIRATES
AE,SHJ,Sharjah,Sharjah,25.35,55.38333333333333,UNITED ARAB EMIRATES
AE,ULR,Umm Al Nar,Umm Al Nar,24.433333333333334,54.5,UNITED ARAB EMIRATES
AE,QIW,Umm al Qaiwain,Umm al Qaiwain,25.566666666666666,55.55,UNITED ARAB EMIRATES
AE,YAS,Yas Island,Yas Island,24.316666666666666,52.6,UNITED ARAB EMIRATES
AE,ZUR,Zirku Island,Zirku Island,24.883333333333333,53.06666666666667,UNITED ARAB EMIRATES
AF,DHD,Dehdadi,Dehdadi,36.65,66.98333333333333,AFGHANISTAN
AF,QLT,Qalat,Qalat,32.1,66.88333333333334,AFGHANISTAN
AF,RKH,Torkham,Torkham,34.88333333333333,71.91666666666667,AFGHANISTAN
AG,FAM,Falmouth,Falmouth,17.016666666666666,-61.78333333333333,ANTIGUA AND BARBUDA
AG,PHM,Parham,Parham,17.083333333333332,-61.75,ANTIGUA AND BARBUDA
AG,SJO,Saint John's,Saint John's,17.116666666666667,-61.85,ANTIGUA AND BARBUDA
AI,MBB,Meads Bay Beach,Meads Bay Beach,18.166666666666668,-63.13333333333333,ANGUILLA
AI,SOM,Sombrero,Sombrero,18.6,-63.46666666666667,ANGUILLA
AL,BUT,Butrint,Butrint,39.75,20.016666666666666,ALBANIA
AL,HMR,Himare,Himare,40.13333333333333,19.716666666666665,ALBANIA
AL,ROM,Romano Port,Romano Port,41.36666666666667,19.416666666666668,ALBANIA
AL,SAR,Sarandë,Sarande,39.88333333333333,20.0,ALBANIA
AL,SHG,Shëngjin,Shengjin,41.8,19.566666666666666,ALBANIA
AL,VOA,Vlorë,Vlore,40.46666666666667,19.483333333333334,ALBANIA
AO,BAB,Baba,Baba,-14.833333333333334,12.233333333333333,ANGOLA
AO,BDT,Baía dos Tigres,Baia dos Tigres,-16.6,11.733333333333333,ANGOLA
AO,CPO,Capulo,Capulo,-7.983333333333333,13.166666666666666,ANGOLA
AO,CUI,Cuio,Cuio,-12.983333333333333,12.983333333333333,ANGOLA
AO,DAL,Dalia,Dalia,-7.683333333333334,11.783333333333333,ANGOLA
AO,ETN,Essungo Terminal,Essungo Terminal,-6.333333333333333,12.166666666666666,ANGOLA
AO,FBY,Farta Bay,Farta Bay,-12.616666666666667,13.2,ANGOLA
AO,FLT,Futila Terminal,Futila Terminal,-5.45,12.183333333333334,ANGOLA
AO,GIM,Gimboa,Gimboa,-7.533333333333333,12.166666666666666,ANGOLA
AO,GIR,Girassol Terminal,Girassol Terminal,-7.633333333333333,11.683333333333334,ANGOLA
AO,GPO,Greater Plutonio,Greater Plutonio,-7.833333333333333,12.116666666666667,ANGOLA
AO,KOT,Kuito Terminal,Kuito Terminal,-5.433333333333334,11.483333333333333,ANGOLA
AO,LBT,Lombo Terminal,Lombo Terminal,-6.983333333333333,12.35,ANGOLA
AO,NQI,Nóqui,Noqui,-5.85,13.433333333333334,ANGOLA
AO,NTO,N'Zeto (Ambrizete),N'Zeto (Ambrizete),-7.266666666666667,12.85,ANGOLA
AO,PSA,Porto Saco (Portosalazar),Porto Saco (Portosalazar),-15.133333333333333,12.133333333333333,ANGOLA
AO,RSN,River Sao Nicolau,River Sao Nicolau,-14.25,12.333333333333334,ANGOLA
AO,STL,Sazaire Terminal,Sazaire Terminal,-6.083333333333333,12.383333333333333,ANGOLA
AQ,ABA,Aboa,Aboa,-73.05,-13.416666666666666,ANTARCTICA
AQ,ARC,Arctowski,Arctowski,-62.15,-58.46666666666667,ANTARCTICA
AQ,ART,Artigas,Artigas,-62.18333333333333,-58.9,ANTARCTICA
AQ,APT,Arturo Prat,Arturo Prat,-62.5,-59.68333333333333,ANTARCTICA
AQ,BHN,Bellingshausen,Bellingshausen,-62.18333333333333,-58.95,ANTARCTICA
AQ,CAS,Casey Station,Casey Station,-66.28333333333333,110.51666666666667,ANTARCTICA
AQ,CFZ,Comandante Ferraz,Comandante Ferraz,-62.083333333333336,-58.38333333333333,ANTARCTICA
AQ,DAV,Davis Station,Davis Station,-68.56666666666666,77.96666666666667,ANTARCTICA
AQ,DDU,Dumont d'Urville Station,Dumont d'Urville Station,-66.65,140.0,ANTARCTICA
AQ,ESC,Escudero,Escudero,-62.2,-58.95,ANTARCTICA
AQ,ESP,Esperanza,Esperanza,-63.38333333333333,-56.983333333333334,ANTARCTICA
AQ,OHG,General Bernardo O'higgins,General Bernardo O'higgins,-63.31666666666667,-57.9,ANTARCTICA
AQ,GWL,Great Wall,Great Wall,-62.21666666666667,-58.96666666666667,ANTARCTICA
AQ,HLY,Halley,Halley,-75.56666666666666,-26.533333333333335,ANTARCTICA
AQ,JBS,Jang Bogo Station,Jang Bogo Station,-74.6,164.2,ANTARCTICA
AQ,JCP,Juan Carlos Primero,Juan Carlos Primero,-62.65,-60.38333333333333,ANTARCTICA
AQ,JUB,Jubany,Jubany,-62.233333333333334,-58.65,ANTARCTICA
AQ,KSG,King Sejong,King Sejong,-62.21666666666667,-58.78333333333333,ANTARCTICA
AQ,KHN,Kohnen,Kohnen,-75.0,0.06666666666666667,ANTARCTICA
AQ,LAW,Law Base,Law Base,-69.38333333333334,76.38333333333334,ANTARCTICA
AQ,MRB,Marambio,Marambio,-64.23333333333333,-56.65,ANTARCTICA
AQ,MZU,Mario Zucchelli,Mario Zucchelli,-74.68333333333334,164.11666666666667,ANTARCTICA
AQ,MAW,Mawson Station,Mawson Station,-67.6,62.86666666666667,ANTARCTICA
AQ,MCM,McMurdo,McMurdo,-77.83333333333333,166.66666666666666,ANTARCTICA
AQ,MIR,Mirny,Mirny,-66.55,93.0,ANTARCTICA
AQ,ORC,Orcadas,Orcadas,-60.733333333333334,-44.733333333333334,ANTARCTICA
AQ,PLM,Palmer,Palmer,-64.76666666666667,-64.05,ANTARCTICA
AQ,PFS,Port Foster,Port Foster,-63.0,-60.56666666666667,ANTARCTICA
AQ,PRO,Progress,Progress,-69.4,76.38333333333334,ANTARCTICA
AQ,ROT,Rothera,Rothera,-67.56666666666666,-68.11666666666666,ANTARCTICA
AQ,SMT,San Martín,San Martin,-68.11666666666666,-67.1,ANTARCTICA
AQ,SGN,Signy,Signy,-60.71666666666667,-45.6,ANTARCTICA
AQ,SYW,Syowa,Syowa,-69.0,39.583333333333336,ANTARCTICA
AQ,VKY,Vernadsky,Vernadsky,-65.23333333333333,-64.25,ANTARCTICA
AQ,WSA,Wasa,Wasa,-73.05,-13.416666666666666,ANTARCTICA
AQ,ZGN,Zhongshan,Zhongshan,-69.36666666666666,76.38333333333334,ANTARCTICA
AR,GEO,Agrelo,Agrelo,-33.11666666666667,-68.88333333333334,ARGENTINA
AR,ACF,Arrecifes,Arrecifes,-34.083333333333336,-60.11666666666667,ARGENTINA
AR,ASO,Arroyo Seco,Arroyo Seco,-33.13333333333333,-60.43333333333333,ARGENTINA
AR,BHI,Bahía Blanca,Bahia Blanca,-38.71666666666667,-62.28333333333333,ARGENTINA
AR,BVC,Bella Vista,Bella Vista,-28.5,-59.05,ARGENTINA
AR,BUE,Buenos Aires,Buenos Aires,-34.583333333333336,-58.666666666666664,ARGENTINA
AR,CSA,Cabo San Antonio,Cabo San Antonio,-36.03333333333333,-56.56666666666667,ARGENTINA
AR,CLC,Caleta Córdoba,Caleta Cordoba,-45.733333333333334,-67.06666666666666,ARGENTINA
AR,CMP,Campana,Campana,-34.15,-58.95,ARGENTINA
AR,CDL,Candelaria,Candelaria,-27.45,-55.75,ARGENTINA
AR,CHO,Chilecito,Chilecito,-29.166666666666668,-67.5,ARGENTINA
AR,CBS,Chimbas,Chimbas,-31.483333333333334,-68.53333333333333,ARGENTINA
AR,COL,Colón,Colon,-32.21666666666667,-58.13333333333333,ARGENTINA
AR,COU,Concepción del Uruguay,Concepcion del Uruguay,-32.483333333333334,-58.233333333333334,ARGENTINA
AR,IQO,Coquimbito,Coquimbito,-32.96666666666667,-68.75,ARGENTINA
AR,DGU,Del Guazu,Del Guazu,-33.9,-58.86666666666667,ARGENTINA
AR,DSU,Dock Sur,Dock Sur,-34.65,-58.333333333333336,ARGENTINA
AR,GHU,Gualeguaychú,Gualeguaychu,-33.016666666666666,-58.516666666666666,ARGENTINA
AR,IBY,Ibicuy,Ibicuy,-33.733333333333334,-59.166666666666664,ARGENTINA
AR,BUI,Ingeniero Buitrago,Ingeniero Buitrago,-33.35,-60.13333333333333,ARGENTINA
AR,INW,Ingeniero White/Bahia Blanca,Ingeniero White/Bahia Blanca,-38.78333333333333,-62.266666666666666,ARGENTINA
AR,LPM,La Paz,La Paz,-33.46666666666667,-67.55,ARGENTINA
AR,LPG,La Plata,La Plata,-34.85,-57.88333333333333,ARGENTINA
AR,LPS,Las Palmas,Las Palmas,-34.016666666666666,-59.11666666666667,ARGENTINA
AR,LAV,Lavalle,Lavalle,-28.2,-65.13333333333334,ARGENTINA
AR,LUJ,Luján,Lujan,-34.56666666666667,-59.1,ARGENTINA
AR,LCU,Lujan de Cuyo,Lujan de Cuyo,-33.05,-68.86666666666666,ARGENTINA
AR,LZG,Luzuriaga,Luzuriaga,-32.95,-68.81666666666666,ARGENTINA
AR,MDQ,Mar del Plata,Mar del Plata,-38.05,-57.53333333333333,ARGENTINA
AR,NOS,Molinos,Molinos,-25.416666666666668,-66.31666666666666,ARGENTINA
AR,OVI,Olavarría,Olavarria,-36.88333333333333,-60.333333333333336,ARGENTINA
AR,PP9,Pablo Podestá,Pablo Podesta,-34.6,-58.516666666666666,ARGENTINA
AR,PRA,Paraná,Parana,-31.733333333333334,-60.53333333333333,ARGENTINA
AR,PAL,Puerto Alumbrera,Puerto Alumbrera,-32.65,-60.75,ARGENTINA
AR,PUD,Puerto Deseado,Puerto Deseado,-47.75,-65.9,ARGENTINA
AR,PEL,Puerto Eldorado,Puerto Eldorado,-26.35,-54.68333333333333,ARGENTINA
AR,ROC,Puerto Ingeniero M. Rocca,Puerto Ingeniero M. Rocca,-34.85,-57.93333333333333,ARGENTINA
AR,PLA,Puerto Lavalle,Puerto Lavalle,-29.016666666666666,-59.18333333333333,ARGENTINA
AR,PMY,Puerto Madryn,Puerto Madryn,-42.75,-65.03333333333333,ARGENTINA
AR,PRS,Puerto Rosales/Bahia Blanca,Puerto Rosales/Bahia Blanca,-38.93333333333333,-62.06666666666667,ARGENTINA
AR,PWA,Puerto Wanda,Puerto Wanda,-25.966666666666665,-54.6,ARGENTINA
AR,PCO,Punta Colorada,Punta Colorada,-41.7,-65.0,ARGENTINA
AR,PME,Punta Medanos,Punta Medanos,-36.833333333333336,-56.666666666666664,ARGENTINA
AR,QBR,Quebracho/San Lorenzo,Quebracho/San Lorenzo,-32.65,-60.71666666666667,ARGENTINA
AR,QQN,Quequén,Quequen,-38.53333333333333,-58.7,ARGENTINA
AR,RWO,Rawson,Rawson,-43.3,-65.1,ARGENTINA
AR,RSF,Resinfor,Resinfor,-32.65,-60.733333333333334,ARGENTINA
AR,RIC,Rio Cullen,Rio Cullen,-52.8,-68.18333333333334,ARGENTINA
AR,RGL,Río Gallegos,Rio Gallegos,-51.63333333333333,-69.21666666666667,ARGENTINA
AR,RGA,Río Grande,Rio Grande,-53.78333333333333,-67.7,ARGENTINA
AR,RIV,Rivadavia,Rivadavia,-33.18333333333333,-68.46666666666667,ARGENTINA
AR,ROS,Rosario,Rosario,-32.95,-60.65,ARGENTINA
AR,RFO,Rosario de la Frontera,Rosario de la Frontera,-25.8,-64.96666666666667,ARGENTINA
AR,SAE,San Antonio Este,San Antonio Este,-40.8,-64.73333333333333,ARGENTINA
AR,SCA,San Carlos,San Carlos,-33.766666666666666,-69.03333333333333,ARGENTINA
AR,SIG,San Ignacio,San Ignacio,-27.266666666666666,-55.56666666666667,ARGENTINA
AR,ULA,San Julian,San Julian,-49.3,-67.71666666666667,ARGENTINA
AR,SMR,San Martin,San Martin,-33.06666666666667,-68.46666666666667,ARGENTINA
AR,SMA,San Martin,San Martin,-32.71666666666667,-60.733333333333334,ARGENTINA
AR,SNS,San Nicolás de los Arroyos,San Nicolas de los Arroyos,-33.333333333333336,-60.233333333333334,ARGENTINA
AR,SPD,San Pedro,San Pedro,-33.68333333333333,-59.166666666666664,ARGENTINA
AR,SSJ,San Salvador de Jujuy,San Salvador de Jujuy,-24.183333333333334,-65.3,ARGENTINA
AR,SSN,San Sebastián,San Sebastian,-53.3,-68.46666666666667,ARGENTINA
AR,SAN,Santa Ana,Santa Ana,-27.333333333333332,-55.583333333333336,ARGENTINA
AR,RZA,Santa Cruz,Santa Cruz,-50.016666666666666,-68.41666666666667,ARGENTINA
AR,SFN,Santa Fe,Santa Fe,-31.6,-60.68333333333333,ARGENTINA
AR,STA,Santa Rosa,Santa Rosa,-33.25,-68.15,ARGENTINA
AR,OYO,Tres Arroyos,Tres Arroyos,-38.38333333333333,-60.28333333333333,ARGENTINA
AR,TUC,Tucumán,Tucuman,-26.816666666666666,-65.21666666666667,ARGENTINA
AR,TUN,Tunuyan,Tunuyan,-33.56666666666667,-69.01666666666667,ARGENTINA
AR,URD,Urdurrain,Urdurrain,-32.68333333333333,-58.88333333333333,ARGENTINA
AR,USH,Ushuaia,Ushuaia,-54.8,-68.3,ARGENTINA
AR,VLO,Vicente López,Vicente Lopez,-34.516666666666666,-58.483333333333334,ARGENTINA
AR,VCN,Villa Constitución,Villa Constitucion,-33.233333333333334,-60.333333333333336,ARGENTINA
AR,VHE,Villa Hernandarias,Villa Hernandarias,-31.233333333333334,-59.983333333333334,ARGENTINA
AR,ZAE,Zárate,Zarate,-34.1,-59.03333333333333,ARGENTINA
AS,PPG,Pago Pago,Pago Pago,14.266666666666667,-170.7,AMERICAN SAMOA
AT,FG7,Achau,Achau,48.666666666666664,-162.5,AUSTRIA
AT,AWH,Altenwörth,Altenworth,48.38333333333333,15.85,AUSTRIA
AT,ATN,Asten,Asten,48.21666666666667,14.4,AUSTRIA
AT,SXA,Bernhardsthal,Bernhardsthal,48.68333333333333,16.866666666666667,AUSTRIA
AT,BFS,Bischofshofen,Bischofshofen,47.416666666666664,13.216666666666667,AUSTRIA
AT,BOE,Böhlerwenk,Bohlerwenk,47.983333333333334,14.75,AUSTRIA
AT,BRZ,Bregenz,Bregenz,47.5,9.766666666666667,AUSTRIA
AT,DWA,Deutsch Wagram,Deutsch Wagram,48.3,16.566666666666666,AUSTRIA
AT,DKZ,Deutschkreutz,Deutschkreutz,47.6,16.633333333333333,AUSTRIA
AT,ERR,Dobermannsdorf,Dobermannsdorf,48.6,16.816666666666666,AUSTRIA
AT,NNN,Donnerskirchen,Donnerskirchen,47.9,16.633333333333333,AUSTRIA
AT,DRA,Drasenhofen,Drasenhofen,48.75,-16.65,AUSTRIA
AT,DRO,Dross,Dross,48.45,15.566666666666666,AUSTRIA
AT,DUE,Dürnstein,Durnstein,48.38333333333333,15.516666666666667,AUSTRIA
AT,EBR,Ebreichsdorf,Ebreichsdorf,47.95,16.4,AUSTRIA
AT,EWD,Eibiswald,Eibiswald,46.68333333333333,15.833333333333334,AUSTRIA
AT,BRI,Engabrunn,Engabrunn,48.45,15.75,AUSTRIA
AT,ERO,Engelmannsbrunn,Engelmannsbrunn,48.45,15.883333333333333,AUSTRIA
AT,DFC,Engerwitzdorf,Engerwitzdorf,48.35,14.45,AUSTRIA
AT,ERL,Erl,Erl,47.666666666666664,12.166666666666666,AUSTRIA
AT,EPD,Erpersdorf,Erpersdorf,48.333333333333336,15.9,AUSTRIA
AT,FSU,Faistenau,Faistenau,47.766666666666666,13.216666666666667,AUSTRIA
AT,LKN,Falkenstein,Falkenstein,48.71666666666667,13.583333333333334,AUSTRIA
AT,FHR,Fehring,Fehring,46.93333333333333,16.0,AUSTRIA
AT,FNA,Freudenau,Freudenau,48.18333333333333,16.433333333333334,AUSTRIA
AT,FPS,Fulpmes,Fulpmes,47.15,11.35,AUSTRIA
AT,GA6,Gamlitz,Gamlitz,46.71666666666667,15.55,AUSTRIA
AT,GDN,Gmunden,Gmunden,47.916666666666664,13.8,AUSTRIA
AT,GFS,Greifenstein,Greifenstein,48.333333333333336,16.233333333333334,AUSTRIA
AT,GRN,Grein,Grein,48.21666666666667,14.833333333333334,AUSTRIA
AT,SWH,Gross-Schweinbarth,Gross-Schweinbarth,48.4,16.616666666666667,AUSTRIA
AT,GSN,Gutenstein,Gutenstein,47.86666666666667,15.883333333333333,AUSTRIA
AT,DOF,Hadersdorf,Hadersdorf,48.45,15.716666666666667,AUSTRIA
AT,HKM,Hadersdorf-Kammern,Hadersdorf-Kammern,48.45,15.716666666666667,AUSTRIA
AT,LTX,Hainfeld,Hainfeld,48.03333333333333,15.766666666666667,AUSTRIA
AT,GHH,Haugsdorf,Haugsdorf,48.7,16.066666666666666,AUSTRIA
AT,ITN,Hausleiten,Hausleiten,48.38333333333333,16.1,AUSTRIA
AT,TEN,Hausmannstatten,Hausmannstatten,46.983333333333334,15.5,AUSTRIA
AT,BNN,Hobersbrunn,Hobersbrunn,48.5,16.566666666666666,AUSTRIA
AT,EIN,Hoflein,Hoflein,48.06666666666667,16.783333333333335,AUSTRIA
AT,ZIN,Inzersdorf an der Traisen,Inzersdorf an der Traisen,48.31666666666667,15.666666666666666,AUSTRIA
AT,JPS,Japons,Japons,48.78333333333333,15.566666666666666,AUSTRIA
AT,ZLF,Jetzelsdorf,Jetzelsdorf,48.7,16.05,AUSTRIA
AT,JDD,Judendorf,Judendorf,47.11666666666667,15.35,AUSTRIA
AT,KAM,Kammern im Liesingtal,Kammern im Liesingtal,47.4,14.9,AUSTRIA
AT,KTT,Kematen in Tirol,Kematen in Tirol,47.25,11.266666666666667,AUSTRIA
AT,ZRF,Ketzelsdorf,Ketzelsdorf,48.65,16.65,AUSTRIA
AT,KFD,Knittelfeld,Knittelfeld,47.2,14.816666666666666,AUSTRIA
AT,KMB,Krummnussbaum,Krummnussbaum,48.21666666666667,15.166666666666666,AUSTRIA
AT,GHJ,Krustetten,Krustetten,48.36666666666667,-154.0,AUSTRIA
AT,LZD,Langenzersdorf,Langenzersdorf,48.3,16.35,AUSTRIA
AT,LUA,Lembach,Lembach,48.483333333333334,13.883333333333333,AUSTRIA
AT,LTS,Leutschach,Leutschach,46.666666666666664,15.466666666666667,AUSTRIA
AT,IEG,Limberg,Limberg,48.583333333333336,15.866666666666667,AUSTRIA
AT,MAN,Manning,Manning,48.083333333333336,13.666666666666666,AUSTRIA
AT,MAB,Marbach an der Donau,Marbach an der Donau,48.21666666666667,15.15,AUSTRIA
AT,MKA,Markt Allhau,Markt Allhau,47.233333333333334,16.083333333333332,AUSTRIA
AT,MKC,Mitterkirchen,Mitterkirchen,48.18333333333333,14.7,AUSTRIA
AT,MBS,Morbisch am See,Morbisch am See,47.75,16.666666666666668,AUSTRIA
AT,NT9,Muthmannsdorf,Muthmannsdorf,47.833333333333336,16.1,AUSTRIA
AT,NGG,Neudegg,Neudegg,48.483333333333334,15.883333333333333,AUSTRIA
AT,NFN,Neufelden,Neufelden,48.483333333333334,13.983333333333333,AUSTRIA
AT,NAD,Neuhofen an der Ybbs,Neuhofen an der Ybbs,48.05,14.85,AUSTRIA
AT,ND2,Nickelsdorf,Nickelsdorf,47.93333333333333,17.066666666666666,AUSTRIA
AT,NUZ,Nüziders,Nuziders,47.18333333333333,9.8,AUSTRIA
AT,XAE,Oehling,Oehling,48.1,14.8,AUSTRIA
AT,GGU,Oggau,Oggau,47.833333333333336,16.666666666666668,AUSTRIA
AT,OSH,Ottensheim,Ottensheim,48.333333333333336,14.183333333333334,AUSTRIA
AT,ATK,Paternion,Paternion,46.7,13.633333333333333,AUSTRIA
AT,PBU,Persenbeug,Persenbeug,48.18333333333333,15.066666666666666,AUSTRIA
AT,PET,Petzenkirchen,Petzenkirchen,48.13333333333333,15.15,AUSTRIA
AT,PAS,Podersdorf am See,Podersdorf am See,47.85,16.833333333333332,AUSTRIA
AT,7PZ,Prinzersdorf,Prinzersdorf,48.2,15.516666666666667,AUSTRIA
AT,RAD,Radstadt,Radstadt,47.38333333333333,13.45,AUSTRIA
AT,RHN,Ranshofen,Ranshofen,48.233333333333334,13.0,AUSTRIA
AT,REG,Regau,Regau,48.083333333333336,14.133333333333333,AUSTRIA
AT,ETZ,Rietz,Rietz,47.28333333333333,11.05,AUSTRIA
AT,RHR,Rohrau,Rohrau,48.06666666666667,16.85,AUSTRIA
AT,RRF,Ruhrsdorf,Ruhrsdorf,48.4,15.5,AUSTRIA
AT,SAK,Sankt Aegidi,Sankt Aegidi,48.483333333333334,13.75,AUSTRIA
AT,SGS,Sankt Georgen bei Salzburg,Sankt Georgen bei Salzburg,47.983333333333334,12.883333333333333,AUSTRIA
AT,SMR,Sankt Margarethen an der Raab,Sankt Margarethen an der Raab,47.05,15.75,AUSTRIA
AT,SK3,Sankt Margrethen,Sankt Margrethen,46.63333333333333,14.383333333333333,AUSTRIA
AT,FBZ,Sankt Stefan ob Stainz,Sankt Stefan ob Stainz,46.916666666666664,15.25,AUSTRIA
AT,SUH,Sankt Ulrich,Sankt Ulrich,48.6,16.766666666666666,AUSTRIA
AT,SVM,Sankt Veit im Mühlkreis,Sankt Veit im Muhlkreis,48.46666666666667,14.15,AUSTRIA
AT,SMK,Schönau im Mühlkreis,Schonau im Muhlkreis,48.38333333333333,14.733333333333333,AUSTRIA
AT,TTL,Schrattenthal,Schrattenthal,48.7,15.9,AUSTRIA
AT,SAG,Schutzen am Gebirge,Schutzen am Gebirge,47.85,16.616666666666667,AUSTRIA
AT,SFT,Senftenberg,Senftenberg,48.43333333333333,15.55,AUSTRIA
AT,SPG,Spannberg,Spannberg,48.45,16.733333333333334,AUSTRIA
AT,SPZ,Spitz,Spitz,48.36666666666667,15.416666666666666,AUSTRIA
AT,STD,Steeg,Steeg,47.6,13.633333333333333,AUSTRIA
AT,SSS,Steinberg,Steinberg,47.483333333333334,16.483333333333334,AUSTRIA
AT,SUS,Steinhaus,Steinhaus,48.11666666666667,14.016666666666667,AUSTRIA
AT,ST6,Straden,Straden,46.8,15.866666666666667,AUSTRIA
AT,TAM,Tamsweg,Tamsweg,47.13333333333333,13.8,AUSTRIA
AT,TKP,Taufkirchen an der Pram,Taufkirchen an der Pram,48.416666666666664,13.533333333333333,AUSTRIA
AT,TFS,Terfens,Terfens,47.31666666666667,11.65,AUSTRIA
AT,THS,Theiss,Theiss,48.38333333333333,15.683333333333334,AUSTRIA
AT,TMR,Traismauer,Traismauer,48.333333333333336,15.733333333333333,AUSTRIA
AT,VEL,Velden,Velden,46.61666666666667,14.05,AUSTRIA
AT,ERM,Vordernberg,Vordernberg,47.46666666666667,15.0,AUSTRIA
AT,WSE,Wallsee,Wallsee,48.166666666666664,14.716666666666667,AUSTRIA
AT,WEU,Weinburg,Weinburg,48.1,15.516666666666667,AUSTRIA
AT,WDF,Weitendorf,Weitendorf,46.88333333333333,15.466666666666667,AUSTRIA
AT,WUL,Wulkaprodersdorf,Wulkaprodersdorf,47.8,16.5,AUSTRIA
AT,ZNG,Zobing,Zobing,48.483333333333334,15.683333333333334,AUSTRIA
AU,ABP,Abbot Point,Abbot Point,-19.9,148.08333333333334,AUSTRALIA
AU,ALP,Abell Point,Abell Point,-20.266666666666666,148.71666666666667,AUSTRALIA
AU,ADL,Adelaide,Adelaide,-34.916666666666664,138.58333333333334,AUSTRALIA
AU,AIR,Airlie Terminal,Airlie Terminal,-21.333333333333332,115.16666666666667,AUSTRALIA
AU,ALD,Aldgate,Aldgate,-35.016666666666666,138.73333333333332,AUSTRALIA
AU,AMR,Amrun,Amrun,-12.916666666666666,141.61666666666667,AUSTRALIA
AU,ANN,Annandale,Annandale,-33.88333333333333,151.16666666666666,AUSTRALIA
AU,APP,Applecross,Applecross,-32.016666666666666,115.83333333333333,AUSTRALIA
AU,AUA,Armadale,Armadale,-32.15,116.0,AUSTRALIA
AU,DLP,Arndell Park,Arndell Park,-33.78333333333333,150.86666666666667,AUSTRALIA
AU,ASH,Ashton,Ashton,-34.93333333333333,138.73333333333332,AUSTRALIA
AU,P6D,Aspendale,Aspendale,-38.03333333333333,145.1,AUSTRALIA
AU,ATT,Attadale,Attadale,-32.016666666666666,115.78333333333333,AUSTRALIA
AU,AGS,Augusta,Augusta,-34.31666666666667,115.16666666666667,AUSTRALIA
AU,ALI,Australind,Australind,-33.28333333333333,115.71666666666667,AUSTRALIA
AU,BAE,Baerami,Baerami,-32.4,150.48333333333332,AUSTRALIA
AU,BAA,Balhannah,Balhannah,-34.983333333333334,138.83333333333334,AUSTRALIA
AU,BAL,Balnarring,Balnarring,-38.36666666666667,145.13333333333333,AUSTRALIA
AU,BNN,Bannockburn,Bannockburn,-38.05,144.16666666666666,AUSTRALIA
AU,BAR,Barry Beach,Barry Beach,-38.7,146.38333333333333,AUSTRALIA
AU,BBL,Beelbangera,Beelbangera,-34.266666666666666,146.1,AUSTRALIA
AU,BE9,Belrose,Belrose,-33.733333333333334,151.21666666666667,AUSTRALIA
AU,BVD,Belvidere,Belvidere,-35.3,138.93333333333334,AUSTRALIA
AU,BFD,Beresfield,Beresfield,-32.8,151.65,AUSTRALIA
AU,BKE,Berkeley Vale,Berkeley Vale,-33.35,151.43333333333334,AUSTRALIA
AU,BRR,Berrys Creek,Berrys Creek,-38.416666666666664,146.06666666666666,AUSTRALIA
AU,BIC,Bicheno,Bicheno,-41.86666666666667,148.28333333333333,AUSTRALIA
AU,BBG,Bing Bong,Bing Bong,-15.6,136.35,AUSTRALIA
AU,BLP,Black Point,Black Point,-11.15,132.15,AUSTRALIA
AU,TTS,Blackmans Bay,Blackmans Bay,-42.983333333333334,147.31666666666666,AUSTRALIA
AU,BOV,Blacktip Terminal,Blacktip Terminal,-14.4,129.35,AUSTRALIA
AU,BNY,Blayney,Blayney,-33.53333333333333,149.25,AUSTRALIA
AU,BOB,Bobin,Bobin,-31.716666666666665,152.28333333333333,AUSTRALIA
AU,BDY,Bomaderry,Bomaderry,-34.85,150.61666666666667,AUSTRALIA
AU,BOO,Booby Island,Booby Island,-10.6,141.91666666666666,AUSTRALIA
AU,BOD,Boondall,Boondall,-27.333333333333332,153.05,AUSTRALIA
AU,BOT,Boort,Boort,-36.11666666666667,143.71666666666667,AUSTRALIA
AU,BOU,Boundary Bend,Boundary Bend,-34.7,143.15,AUSTRALIA
AU,BOY,Boyer,Boyer,-42.833333333333336,147.3,AUSTRALIA
AU,BBY,Bremer Bay,Bremer Bay,-34.38333333333333,119.36666666666666,AUSTRALIA
AU,BOL,Bridgewater-on-Loddon,Bridgewater-on-Loddon,-36.6,143.95,AUSTRALIA
AU,BPO,Bridport,Bridport,-41.0,147.4,AUSTRALIA
AU,BSA,Brighton-Le-Sands,Brighton-Le-Sands,-33.95,151.15,AUSTRALIA
AU,BNE,Brisbane,Brisbane,-27.466666666666665,153.01666666666668,AUSTRALIA
AU,NSB,Broke,Broke,-32.75,151.1,AUSTRALIA
AU,BUL,Bulli,Bulli,-34.3,150.91666666666666,AUSTRALIA
AU,BLL,Bullsbrook,Bullsbrook,-31.666666666666668,116.0,AUSTRALIA
AU,BWI,Bulwer,Bulwer,-27.066666666666666,153.36666666666667,AUSTRALIA
AU,BUC,Burketown,Burketown,-17.733333333333334,139.53333333333333,AUSTRALIA
AU,BYY,Bushy Park,Bushy Park,-37.86666666666667,147.03333333333333,AUSTRALIA
AU,CMB,Cambridge,Cambridge,-42.833333333333336,147.45,AUSTRALIA
AU,CMP,Camperdown,Camperdown,-33.88333333333333,151.16666666666666,AUSTRALIA
AU,CAP,Capalaba,Capalaba,-27.516666666666666,153.18333333333334,AUSTRALIA
AU,DON,Cape Don,Cape Don,-11.316666666666666,131.75,AUSTRALIA
AU,CBO,Carboor,Carboor,-36.63333333333333,146.55,AUSTRALIA
AU,CAR,Carina Heights,Carina Heights,-27.5,153.08333333333334,AUSTRALIA
AU,CLF,Carlingford,Carlingford,-33.78333333333333,151.05,AUSTRALIA
AU,CUN,Caufield North,Caufield North,-37.86666666666667,14.85,AUSTRALIA
AU,CVS,Caversham,Caversham,-31.883333333333333,115.96666666666667,AUSTRALIA
AU,CHE,Chermside,Chermside,-27.383333333333333,153.16666666666666,AUSTRALIA
AU,CN6,Chinderah,Chinderah,-28.233333333333334,153.55,AUSTRALIA
AU,CHT,Chittering,Chittering,-31.483333333333334,116.1,AUSTRALIA
AU,SCL,Clare,Clare,-33.833333333333336,138.6,AUSTRALIA
AU,CLM,Claremont,Claremont,-31.983333333333334,115.78333333333333,AUSTRALIA
AU,CDN,Clarendon,Clarendon,-35.11666666666667,138.63333333333333,AUSTRALIA
AU,CVN,Cleveland,Cleveland,-27.533333333333335,153.26666666666668,AUSTRALIA
AU,CVL,Clovelly,Clovelly,-33.9,151.25,AUSTRALIA
AU,CTI,Cockatoo Island,Cockatoo Island,-16.1,123.61666666666666,AUSTRALIA
AU,CST,Coldstream,Coldstream,-37.71666666666667,145.36666666666667,AUSTRALIA
AU,CMO,Como,Como,-34.0,151.06666666666666,AUSTRALIA
AU,CDE,Condamine,Condamine,-26.933333333333334,150.13333333333333,AUSTRALIA
AU,COU,Coolum,Coolum,-26.55,153.08333333333334,AUSTRALIA
AU,COO,Coomera,Coomera,-27.883333333333333,153.3,AUSTRALIA
AU,CNW,Coonawarra,Coonawarra,-37.3,140.81666666666666,AUSTRALIA
AU,CPR,Coorparoo,Coorparoo,-27.5,153.05,AUSTRALIA
AU,CRL,Coral Bay,Coral Bay,-23.133333333333333,113.76666666666667,AUSTRALIA
AU,CRS,Coral Sea,Coral Sea,-19.083333333333332,150.9,AUSTRALIA
AU,CBA,Corio Bay,Corio Bay,-38.11666666666667,144.43333333333334,AUSTRALIA
AU,CRV,Coromandel Valley,Coromandel Valley,-35.05,138.61666666666667,AUSTRALIA
AU,CTE,Cottesloe,Cottesloe,-32.0,115.76666666666667,AUSTRALIA
AU,CTT,Cottles Bridge,Cottles Bridge,-37.63333333333333,145.21666666666667,AUSTRALIA
AU,DIL,Cowandilla,Cowandilla,-34.916666666666664,138.55,AUSTRALIA
AU,COW,Cowaramup,Cowaramup,-33.86666666666667,115.08333333333333,AUSTRALIA
AU,CRF,Crafers,Crafers,-35.0,138.7,AUSTRALIA
AU,CRE,Crestmead,Crestmead,-27.683333333333334,153.08333333333334,AUSTRALIA
AU,C8R,Cromer,Cromer,-34.766666666666666,139.0,AUSTRALIA
AU,CRU,Cronulla,Cronulla,-34.05,151.15,AUSTRALIA
AU,DIT,Dalrymple Islet,Dalrymple Islet,-9.6,143.3,AUSTRALIA
AU,DAL,Dalton,Dalton,-34.71666666666667,149.18333333333334,AUSTRALIA
AU,DAR,Dardanup,Dardanup,-33.4,115.75,AUSTRALIA
AU,DRW,Darwin,Darwin,-12.45,130.83333333333334,AUSTRALIA
AU,DHI,Dhipirrinjura,Dhipirrinjura,-12.25,135.08333333333334,AUSTRALIA
AU,DIA,Diamond Creek,Diamond Creek,-37.666666666666664,145.15,AUSTRALIA
AU,DRY,Drysdale,Drysdale,-38.166666666666664,144.56666666666666,AUSTRALIA
AU,EDE,Eden Valley,Eden Valley,-34.65,139.1,AUSTRALIA
AU,ELB,Elizabeth Bay,Elizabeth Bay,-11.9,136.55,AUSTRALIA
AU,ELT,Eltham,Eltham,-37.733333333333334,145.15,AUSTRALIA
AU,EVL,Evans Landing,Evans Landing,-12.666666666666666,141.85,AUSTRALIA
AU,FIN,Findon,Findon,-34.9,138.53333333333333,AUSTRALIA
AU,FLN,Flynn,Flynn,-38.166666666666664,146.68333333333334,AUSTRALIA
AU,FLD,Frankland,Frankland,-34.36666666666667,114.06666666666666,AUSTRALIA
AU,FWT,Freshwater,Freshwater,-33.766666666666666,151.28333333333333,AUSTRALIA
AU,GBT,Garbutt,Garbutt,-19.266666666666666,146.76666666666668,AUSTRALIA
AU,GEM,Gembrook,Gembrook,-37.95,145.55,AUSTRALIA
AU,GOA,Goolwa,Goolwa,-35.5,138.78333333333333,AUSTRALIA
AU,GOR,Gordon,Gordon,-37.583333333333336,144.1,AUSTRALIA
AU,GOH,Gove Harbour,Gove Harbour,-12.216666666666667,136.66666666666666,AUSTRALIA
AU,GTH,Grantham,Grantham,-27.583333333333332,152.2,AUSTRALIA
AU,GRB,Gravelly Beach,Gravelly Beach,-41.3,146.96666666666667,AUSTRALIA
AU,GTW,Great Western,Great Western,-37.15,142.85,AUSTRALIA
AU,GRK,Greenock,Greenock,-34.46666666666667,138.91666666666666,AUSTRALIA
AU,GRU,Gruyere,Gruyere,-37.733333333333334,145.45,AUSTRALIA
AU,GUM,Gumeracha,Gumeracha,-34.833333333333336,138.88333333333333,AUSTRALIA
AU,HAH,Hahndorf,Hahndorf,-35.03333333333333,138.8,AUSTRALIA
AU,HTT,Halletts Cove,Halletts Cove,-35.06666666666667,138.5,AUSTRALIA
AU,HAM,Hampton,Hampton,-38.333333333333336,145.25,AUSTRALIA
AU,HWD,Hanwood,Hanwood,-34.333333333333336,146.03333333333333,AUSTRALIA
AU,HPP,Happy Valley,Happy Valley,-35.083333333333336,138.53333333333333,AUSTRALIA
AU,HAS,Hastings,Hastings,-38.3,145.25,AUSTRALIA
AU,HTH,Heathcote,Heathcote,-36.916666666666664,144.71666666666667,AUSTRALIA
AU,HBE,Heatherbrae,Heatherbrae,-32.78333333333333,151.73333333333332,AUSTRALIA
AU,HFR,Henderson,Henderson,-32.166666666666664,115.76666666666667,AUSTRALIA
AU,HNK,Hinchinbrook Island,Hinchinbrook Island,-18.383333333333333,146.28333333333333,AUSTRALIA
AU,HBA,Hobart,Hobart,-42.86666666666667,147.3,AUSTRALIA
AU,HDD,Hoddles Creek,Hoddles Creek,-37.833333333333336,145.58333333333334,AUSTRALIA
AU,IGF,Ingle Farm,Ingle Farm,-34.833333333333336,138.63333333333333,AUSTRALIA
AU,IRY,Irymple,Irymple,-34.25,142.16666666666666,AUSTRALIA
AU,JAR,Jarrahdale,Jarrahdale,-32.35,116.06666666666666,AUSTRALIA
AU,KAN,Kangarilla,Kangarilla,-35.15,138.65,AUSTRALIA
AU,KRB,Karumba,Karumba,-17.483333333333334,140.83333333333334,AUSTRALIA
AU,KAY,Kayena,Kayena,-41.18333333333333,146.88333333333333,AUSTRALIA
AU,KEI,Keith,Keith,-36.1,140.35,AUSTRALIA
AU,KNG,Kensington Gardens,Kensington Gardens,-35.53333333333333,139.1,AUSTRALIA
AU,KEY,Keyneton,Keyneton,-34.56666666666667,139.13333333333333,AUSTRALIA
AU,LMQ,Lake Macquarie,Lake Macquarie,-33.06666666666667,151.6,AUSTRALIA
AU,LEN,Lakes Entrance,Lakes Entrance,-37.88333333333333,147.98333333333332,AUSTRALIA
AU,LAN,Langarra,Langarra,-12.083333333333334,135.35,AUSTRALIA
AU,JML,Laurieton,Laurieton,-31.65,152.8,AUSTRALIA
AU,LYD,Lilydale,Lilydale,-37.75,145.36666666666667,AUSTRALIA
AU,LOW,Lisarow,Lisarow,-33.38333333333333,151.36666666666667,AUSTRALIA
AU,MKY,Mackay,Mackay,-21.15,149.2,AUSTRALIA
AU,MQI,Macquarie Island,Macquarie Island,-54.483333333333334,158.93333333333334,AUSTRALIA
AU,MRK,Macquarie Park,Macquarie Park,-33.766666666666666,151.11666666666667,AUSTRALIA
AU,MBY,Maribyrnong,Maribyrnong,-37.78333333333333,144.88333333333333,AUSTRALIA
AU,MAR,Marrickville,Marrickville,-33.916666666666664,151.16666666666666,AUSTRALIA
AU,SAD,Maryborough,Maryborough,-37.5,143.75,AUSTRALIA
AU,KLL,Maryknoll,Maryknoll,-38.916666666666664,145.6,AUSTRALIA
AU,MEL,Melbourne,Melbourne,-37.81666666666667,144.96666666666667,AUSTRALIA
AU,MLI,Melville Island,Melville Island,-11.55,130.93333333333334,AUSTRALIA
AU,MID,Midland,Midland,31.883333333333333,-115.98333333333333,AUSTRALIA
AU,MON,Montara Field,Montara Field,-13.083333333333334,124.08333333333333,AUSTRALIA
AU,MLL,Mooloolaba,Mooloolaba,-26.683333333333334,153.13333333333333,AUSTRALIA
AU,MOK,Moorook,Moorook,-34.28333333333333,140.35,AUSTRALIA
AU,MDC,Mordialloc,Mordialloc,-38.016666666666666,145.08333333333334,AUSTRALIA
AU,MGE,Mount Gravatt,Mount Gravatt,-27.533333333333335,153.08333333333334,AUSTRALIA
AU,MHW,Mount Hawthorn,Mount Hawthorn,-31.916666666666668,115.83333333333333,AUSTRALIA
AU,MOW,Mowbray Heights,Mowbray Heights,-41.38333333333333,147.13333333333333,AUSTRALIA
AU,MWA,Mulwala,Mulwala,-36.0,146.0,AUSTRALIA
AU,NEQ,Nericon,Nericon,-34.2,146.03333333333333,AUSTRALIA
AU,NLK,New Norfolk,New Norfolk,-42.78333333333333,147.06666666666666,AUSTRALIA
AU,VIC,Newtown,Newtown,-37.7,143.65,AUSTRALIA
AU,NGH,Nganhurra,Nganhurra,-21.483333333333334,114.0,AUSTRALIA
AU,NHU,Nhulunbuy,Nhulunbuy,-12.183333333333334,136.78333333333333,AUSTRALIA
AU,NIV,Ningaloo Vision,Ningaloo Vision,-21.4,114.08333333333333,AUSTRALIA
AU,NB2,North Bridge,North Bridge,-33.8,151.21666666666667,AUSTRALIA
AU,OKF,Oak Flats,Oak Flats,-34.55,150.81666666666666,AUSTRALIA
AU,ONS,Onslow,Onslow,-21.65,115.1,AUSTRALIA
AU,PAG,Paddington,Paddington,-33.88333333333333,151.21666666666667,AUSTRALIA
AU,DSW,Padstow,Padstow,-33.95,151.03333333333333,AUSTRALIA
AU,PAL,Palmerston,Palmerston,-12.466666666666667,130.83333333333334,AUSTRALIA
AU,PEN,Pendle Hills,Pendle Hills,-33.8,150.95,AUSTRALIA
AU,PER,Perth,Perth,-31.95,115.85,AUSTRALIA
AU,PIS,Phillip Island,Phillip Island,-38.483333333333334,145.23333333333332,AUSTRALIA
AU,PIC,Picton,Picton,-34.18333333333333,150.6,AUSTRALIA
AU,PYT,Pleystowe,Pleystowe,-21.15,149.01666666666668,AUSTRALIA
AU,PHP,Point Henry Pier/Melbourne,Point Henry Pier/Melbourne,-38.11666666666667,144.43333333333334,AUSTRALIA
AU,PDI,Port Denison,Port Denison,-29.266666666666666,114.93333333333334,AUSTRALIA
AU,FRY,Port Fairy,Port Fairy,-38.36666666666667,142.23333333333332,AUSTRALIA
AU,T3P,Port Hacking,Port Hacking,-34.06666666666667,151.13333333333333,AUSTRALIA
AU,PKY,Port Kenny,Port Kenny,-33.166666666666664,134.68333333333334,AUSTRALIA
AU,POR,Port Melbourne,Port Melbourne,-37.833333333333336,144.93333333333334,AUSTRALIA
AU,PBN,Port of Brisbane,Port of Brisbane,-27.383333333333333,153.16666666666666,AUSTRALIA
AU,PTW,Port Willunga,Port Willunga,-35.266666666666666,138.45,AUSTRALIA
AU,PHR,Prahran,Prahran,-37.85,145.0,AUSTRALIA
AU,PYE,Pyrenees,Pyrenees,-37.083333333333336,143.48333333333332,AUSTRALIA
AU,PYR,Pyrmont,Pyrmont,-33.86666666666667,151.18333333333334,AUSTRALIA
AU,RAF,Raffles Bay,Raffles Bay,-11.266666666666667,132.38333333333333,AUSTRALIA
AU,REV,Revesby,Revesby,-33.95,151.0,AUSTRALIA
AU,RLL,Reynella,Reynella,-36.1,138.53333333333333,AUSTRALIA
AU,RDS,Rhodes,Rhodes,-33.833333333333336,151.08333333333334,AUSTRALIA
AU,ROB,Robe,Robe,-37.18333333333333,139.75,AUSTRALIA
AU,RYP,Rocky Point,Rocky Point,-33.5,123.98333333333333,AUSTRALIA
AU,RNB,Rosslyn Bay,Rosslyn Bay,-23.166666666666668,150.78333333333333,AUSTRALIA
AU,ROZ,Rozelle,Rozelle,-33.85,151.16666666666666,AUSTRALIA
AU,SGT,Sandgate,Sandgate,-32.86666666666667,151.7,AUSTRALIA
AU,SCY,Scoresby,Scoresby,-37.9,145.21666666666667,AUSTRALIA
AU,5CI,Selby,Selby,-37.916666666666664,145.38333333333333,AUSTRALIA
AU,SMR,Seventeen Mile Rocks/Brisbane,Seventeen Mile Rocks/Brisbane,-27.55,152.95,AUSTRALIA
AU,SOL,Shea Oak Log,Shea Oak Log,-34.516666666666666,138.81666666666666,AUSTRALIA
AU,SKA,Skardon River,Skardon River,-11.75,142.01666666666668,AUSTRALIA
AU,SBN,South Brisbane,South Brisbane,-27.466666666666665,153.01666666666668,AUSTRALIA
AU,STR,South Trees,South Trees,-23.9,151.28333333333333,AUSTRALIA
AU,SPO,Spreyton,Spreyton,-41.21666666666667,146.35,AUSTRALIA
AU,SUH,Surry Hills,Surry Hills,-33.88333333333333,151.21666666666667,AUSTRALIA
AU,SYD,Sydney,Sydney,-33.85,151.2,AUSTRALIA
AU,SYL,Sylvania,Sylvania,-34.016666666666666,151.1,AUSTRALIA
AU,DGA,Tea Gardens,Tea Gardens,-32.666666666666664,152.15,AUSTRALIA
AU,GUR,The Gurdies,The Gurdies,-38.36666666666667,145.55,AUSTRALIA
AU,CTH,Thevenard Island,Thevenard Island,-21.45,114.98333333333333,AUSTRALIA
AU,TOL,Toombul,Toombul,-27.4,153.05,AUSTRALIA
AU,TRD,Tooradin,Tooradin,-38.21666666666667,145.38333333333333,AUSTRALIA
AU,TOR,Toronto,Toronto,-33.0,151.6,AUSTRALIA
AU,TRI,Troughton Island,Troughton Island,-13.75,126.13333333333334,AUSTRALIA
AU,THS,Tweed Heads South,Tweed Heads South,-28.2,153.53333333333333,AUSTRALIA
AU,DA5,Twowells,Twowells,-34.6,138.5,AUSTRALIA
AU,ULA,Ulladulla,Ulladulla,-35.35,150.41666666666666,AUSTRALIA
AU,UMB,Umbakumba,Umbakumba,-13.85,136.8,AUSTRALIA
AU,VGH,Van Gogh Terminal,Van Gogh Terminal,-21.4,114.08333333333333,AUSTRALIA
AU,WSN,Warners Bay,Warners Bay,-32.96666666666667,151.65,AUSTRALIA
AU,WTW,Waterways,Waterways,-38.0,145.11666666666667,AUSTRALIA
AU,WTN,Webberton,Webberton,-28.75,114.61666666666666,AUSTRALIA
AU,KJH,Welland,Welland,-34.9,138.53333333333333,AUSTRALIA
AU,WHL,Welshpool,Welshpool,-38.666666666666664,146.43333333333334,AUSTRALIA
AU,WWP,Wentworth Point,Wentworth Point,-33.833333333333336,151.06666666666666,AUSTRALIA
AU,WRB,Werribee,Werribee,-37.9,144.65,AUSTRALIA
AU,WSI,Whitsunday Island,Whitsunday Island,-20.25,149.01666666666668,AUSTRALIA
AU,WIH,Wingham,Wingham,-31.866666666666667,152.36666666666667,AUSTRALIA
AU,WNB,Withnell Bay,Withnell Bay,-20.583333333333332,116.78333333333333,AUSTRALIA
AU,WOO,Woolloomooloo,Woolloomooloo,-33.86666666666667,151.21666666666667,AUSTRALIA
AU,WBT,Woollybutt (Oil facility),Woollybutt (Oil facility),-21.05,114.86666666666666,AUSTRALIA
AU,YRR,Yarra Junction,Yarra Junction,-37.78333333333333,145.61666666666667,AUSTRALIA
AW,AUA,Aruba,Aruba,12.5,-69.96666666666667,ARUBA
AW,BAR,Barcadera,Barcadera,12.483333333333333,-69.98333333333333,ARUBA
AW,BUS,Bushiribana,Bushiribana,12.55,-69.96666666666667,ARUBA
AX,MHQ,Maarianhamina (Mariehamn),Maarianhamina (Mariehamn),60.1,19.95,ÅLAND ISLANDS
AX,MHQ,Mariehamn (Maarianhamina),Mariehamn (Maarianhamina),60.1,19.95,ÅLAND ISLANDS
AZ,KMZ,Khachmaz,Khachmaz,41.983333333333334,47.583333333333336,AZERBAIJAN
AZ,QDG,Qaradag,Qaradag,40.25,49.6,AZERBAIJAN
AZ,SHI,Shirvan,Shirvan,39.916666666666664,48.916666666666664,AZERBAIJAN
AZ,SUQ,Sumqayit,Sumqayit,40.583333333333336,49.666666666666664,AZERBAIJAN
BA,4CA,Cazin,Cazin,44.96666666666667,15.933333333333334,BOSNIA AND HERZEGOVINA
BA,DOJ,Domaljevac,Domaljevac,45.05,18.566666666666666,BOSNIA AND HERZEGOVINA
BA,FOJ,Fojnica,Fojnica,43.95,17.9,BOSNIA AND HERZEGOVINA
BA,JBA,Jablanica,Jablanica,43.65,17.75,BOSNIA AND HERZEGOVINA
BA,MAG,Maglaj,Maglaj,44.53333333333333,18.083333333333332,BOSNIA AND HERZEGOVINA
BA,NEM,Neum,Neum,42.916666666666664,17.616666666666667,BOSNIA AND HERZEGOVINA
BA,SMT,Sanski Most,Sanski Most,44.766666666666666,16.666666666666668,BOSNIA AND HERZEGOVINA
BA,VGS,Vogosca,Vogosca,43.9,18.35,BOSNIA AND HERZEGOVINA
BA,ZNK,Zvornik,Zvornik,44.38333333333333,19.1,BOSNIA AND HERZEGOVINA
BB,STM,Saint Michael,Saint Michael,13.116666666666667,-59.6,BARBADOS
BD,ASJ,Ashuganj,Ashuganj,24.033333333333335,91.01666666666667,BANGLADESH
BD,BNP,Benapole,Benapole,23.05,88.9,BANGLADESH
BD,CGP,Chattogram,Chattogram,22.333333333333332,91.83333333333333,BANGLADESH
BD,MUN,Munshiganj,Munshiganj,23.55,-90.53333333333333,BANGLADESH
BD,PGN,Pangaon,Pangaon,23.65,90.45,BANGLADESH
BD,PAY,Payra Port,Payra Port,21.933333333333334,90.26666666666667,BANGLADESH
BE,AAB,Aalst,Aalst,50.93333333333333,4.033333333333333,BELGIUM
BE,AAL,Aalter,Aalter,51.083333333333336,3.45,BELGIUM
BE,ADK,Adinkerke,Adinkerke,51.06666666666667,2.6,BELGIUM
BE,AFN,Afsnee,Afsnee,51.03333333333333,3.6666666666666665,BELGIUM
BE,AMY,Amay,Amay,50.55,5.316666666666666,BELGIUM
BE,APS,Ampsin,Ampsin,50.53333333333333,5.283333333333333,BELGIUM
BE,AND,Andenne,Andenne,50.483333333333334,5.1,BELGIUM
BE,ANB,Angleur,Angleur,50.61666666666667,5.583333333333333,BELGIUM
BE,ANH,Anhée,Anhee,50.31666666666667,4.883333333333333,BELGIUM
BE,AVE,Annevoie,Annevoie,50.333333333333336,4.833333333333333,BELGIUM
BE,ASR,Anseremme,Anseremme,50.25,4.9,BELGIUM
BE,AHE,Antheit,Antheit,50.55,5.216666666666667,BELGIUM
BE,ATO,Antoing,Antoing,50.56666666666667,3.45,BELGIUM
BE,ANR,Antwerpen,Antwerpen,51.21666666666667,4.416666666666667,BELGIUM
BE,APL,Appels,Appels,51.03333333333333,4.066666666666666,BELGIUM
BE,APT,Appelterre-Eichem,Appelterre-Eichem,50.81666666666667,3.966666666666667,BELGIUM
BE,AEJ,Arendonk,Arendonk,51.31666666666667,5.083333333333333,BELGIUM
BE,AGT,Argenteau,Argenteau,50.7,5.7,BELGIUM
BE,ASP,Asper,Asper,50.916666666666664,3.65,BELGIUM
BE,AST,Astene,Astene,50.983333333333334,3.55,BELGIUM
BE,ATH,Ath,Ath,50.61666666666667,3.7666666666666666,BELGIUM
BE,7PD,Athis,Athis,50.36666666666667,3.7666666666666666,BELGIUM
BE,ODE,Auderghem (Oudergem)/Brussel (Bruxelles),Auderghem (Oudergem)/Brussel (Bruxelles),50.81666666666667,4.433333333333334,BELGIUM
BE,AVS,Auvelais,Auvelais,50.45,4.616666666666667,BELGIUM
BE,AVL,Avelgem,Avelgem,50.766666666666666,3.4333333333333336,BELGIUM
BE,W5R,Awirs,Awirs,50.6,5.4,BELGIUM
BE,BSR,Baasrode,Baasrode,51.03333333333333,4.166666666666667,BELGIUM
BE,BAI,Baillonville,Baillonville,50.28333333333333,5.333333333333333,BELGIUM
BE,BLE,Balen,Balen,51.166666666666664,5.15,BELGIUM
BE,BGK,Balgerhoek,Balgerhoek,51.2,3.5166666666666666,BELGIUM
BE,BOA,Bas-Oha,Bas-Oha,50.516666666666666,5.183333333333334,BELGIUM
BE,BAT,Battel,Battel,51.05,4.45,BELGIUM
BE,BDU,Baudour,Baudour,50.483333333333334,3.8166666666666664,BELGIUM
BE,BAZ,Bazel,Bazel,51.15,4.3,BELGIUM
BE,BRM,Beernem,Beernem,51.15,3.3333333333333335,BELGIUM
BE,BER,Beerse,Beerse,51.31666666666667,4.866666666666667,BELGIUM
BE,BCR,Bellecourt,Bellecourt,50.483333333333334,4.25,BELGIUM
BE,BLO,Beloeil,Beloeil,50.55,3.716666666666667,BELGIUM
BE,BAN,Ben-Ahin,Ben-Ahin,50.516666666666666,5.166666666666667,BELGIUM
BE,BCM,Berchem,Berchem,50.78333333333333,3.5,BELGIUM
BE,BRT,Berendrecht,Berendrecht,51.333333333333336,4.316666666666666,BELGIUM
BE,RIN,Beringen,Beringen,51.05,5.216666666666667,BELGIUM
BE,BNU,Berneau,Berneau,50.75,5.733333333333333,BELGIUM
BE,BTX,Bertrix,Bertrix,49.85,5.25,BELGIUM
BE,BVE,Bever,Bever,50.71666666666667,3.9333333333333336,BELGIUM
BE,BVO,Beverlo,Beverlo,51.083333333333336,5.2,BELGIUM
BE,BSE,Bissegem,Bissegem,50.81666666666667,3.216666666666667,BELGIUM
BE,BBG,Blankenberge,Blankenberge,51.31666666666667,3.1333333333333333,BELGIUM
BE,WHT,Blaregnies,Blaregnies,50.35,3.8833333333333333,BELGIUM
BE,BLT,Blaton,Blaton,50.5,3.65,BELGIUM
BE,BHR,Bléharies,Bleharies,50.516666666666666,3.4,BELGIUM
BE,BOC,Bocholt,Bocholt,51.166666666666664,5.583333333333333,BELGIUM
BE,BHE,Boekhoute,Boekhoute,51.25,3.716666666666667,BELGIUM
BE,BOM,Boom,Boom,51.083333333333336,4.366666666666666,BELGIUM
BE,BOO,Boorsem,Boorsem,50.93333333333333,5.716666666666667,BELGIUM
BE,BMB,Boortmeerbeek,Boortmeerbeek,50.983333333333334,4.566666666666666,BELGIUM
BE,BON,Bornem,Bornem,51.1,4.233333333333333,BELGIUM
BE,BSU,Bossuit,Bossuit,50.75,3.4,BELGIUM
BE,BO2,Bougnies,Bougnies,50.38333333333333,3.9333333333333336,BELGIUM
BE,BVM,Bouvignes-sur-Meuse,Bouvignes-sur-Meuse,50.266666666666666,4.9,BELGIUM
BE,BRE,Bree,Bree,51.13333333333333,5.6,BELGIUM
BE,BGN,Briegden,Briegden,50.86666666666667,5.616666666666667,BELGIUM
BE,BGS,Brugge (Bruges),Brugge (Bruges),51.21666666666667,3.2333333333333334,BELGIUM
BE,BRU,Brussel (Bruxelles),Brussel (Bruxelles),50.833333333333336,4.333333333333333,BELGIUM
BE,BRU,Bruxelles (Brussel),Bruxelles (Brussel),50.833333333333336,4.333333333333333,BELGIUM
BE,BRY,Bruyelle,Bruyelle,50.55,3.4166666666666665,BELGIUM
BE,BHU,Buggenhout,Buggenhout,51.016666666666666,4.2,BELGIUM
BE,BUD,Burcht,Burcht,51.2,4.35,BELGIUM
BE,CLN,Calonne,Calonne,50.56666666666667,3.4333333333333336,BELGIUM
BE,KAN,Canne (Kanne),Canne (Kanne),50.81666666666667,5.666666666666667,BELGIUM
BE,CRL,Charleroi,Charleroi,50.416666666666664,4.433333333333334,BELGIUM
BE,CTL,Châtelineau,Chatelineau,50.416666666666664,4.516666666666667,BELGIUM
BE,CRA,Cheratte,Cheratte,50.68333333333333,5.666666666666667,BELGIUM
BE,CRQ,Chercq,Chercq,50.583333333333336,3.4,BELGIUM
BE,CTA,Chertal,Chertal,50.68333333333333,5.666666666666667,BELGIUM
BE,CBQ,Clabecq,Clabecq,50.68333333333333,4.216666666666667,BELGIUM
BE,COM,Comines,Comines,50.766666666666666,2.9833333333333334,BELGIUM
BE,COU,Couillet,Couillet,50.38333333333333,4.45,BELGIUM
BE,CCS,Courcelles,Courcelles,50.46666666666667,4.366666666666666,BELGIUM
BE,DKN,Daknam,Daknam,51.13333333333333,3.9833333333333334,BELGIUM
BE,DPY,Dampremy,Dampremy,50.416666666666664,4.4,BELGIUM
BE,DPE,De Pinte,De Pinte,51.0,3.65,BELGIUM
BE,DEZ,Deinze,Deinze,50.983333333333334,3.533333333333333,BELGIUM
BE,DNB,Denderbelle,Denderbelle,51.0,4.083333333333333,BELGIUM
BE,DRW,Denderleeuw,Denderleeuw,50.88333333333333,4.066666666666666,BELGIUM
BE,DDR,Dendermonde,Dendermonde,51.03333333333333,4.116666666666666,BELGIUM
BE,DSE,Dessel,Dessel,51.233333333333334,5.116666666666666,BELGIUM
BE,DSL,Desselgem,Desselgem,50.88333333333333,3.35,BELGIUM
BE,DEG,Deurne,Deurne,51.21666666666667,4.466666666666667,BELGIUM
BE,DXN,Deux-Acren,Deux-Acren,50.733333333333334,3.85,BELGIUM
BE,DPK,Diepenbeek,Diepenbeek,50.9,5.4,BELGIUM
BE,DIK,Diksmuide,Diksmuide,51.03333333333333,2.8666666666666667,BELGIUM
BE,DLS,Dilsen,Dilsen,51.03333333333333,5.733333333333333,BELGIUM
BE,DIA,Dinant,Dinant,50.266666666666666,4.916666666666667,BELGIUM
BE,DEL,Doel,Doel,51.31666666666667,4.266666666666667,BELGIUM
BE,TRN,Doornik (Tournai),Doornik (Tournai),50.6,3.3833333333333333,BELGIUM
BE,DGN,Drongen,Drongen,51.05,3.6666666666666665,BELGIUM
BE,DUF,Duffel,Duffel,51.1,4.516666666666667,BELGIUM
BE,9IR,Eben-Emael,Eben-Emael,50.8,5.666666666666667,BELGIUM
BE,EEK,Eeklo,Eeklo,51.18333333333333,3.5666666666666664,BELGIUM
BE,EBZ,Eigenbilzen,Eigenbilzen,50.86666666666667,5.583333333333333,BELGIUM
BE,EHT,Eindhout,Eindhout,51.1,5.0,BELGIUM
BE,EIN,Eine,Eine,50.86666666666667,3.6166666666666667,BELGIUM
BE,ESD,Eisden,Eisden,50.983333333333334,5.716666666666667,BELGIUM
BE,EQE,Eke,Eke,50.95,3.6333333333333333,BELGIUM
BE,EKE,Ekeren,Ekeren,51.28333333333333,4.416666666666667,BELGIUM
BE,EKS,Eksaarde,Eksaarde,51.15,3.966666666666667,BELGIUM
BE,EBM,Emblem,Emblem,51.166666666666664,4.6,BELGIUM
BE,EAM,Ename,Ename,50.85,3.6333333333333333,BELGIUM
BE,ENG,Engis,Engis,50.583333333333336,5.416666666666667,BELGIUM
BE,REQ,Erquelinnes,Erquelinnes,50.3,4.116666666666666,BELGIUM
BE,ERE,Ertvelde,Ertvelde,51.18333333333333,3.75,BELGIUM
BE,EFS,Escanaffles,Escanaffles,50.75,3.4333333333333336,BELGIUM
BE,SPI,Espierres (Spiere),Espierres (Spiere),50.71666666666667,3.35,BELGIUM
BE,EQM,Esquelmes,Esquelmes,50.666666666666664,3.3333333333333335,BELGIUM
BE,EMP,Estaimpuis,Estaimpuis,50.7,3.25,BELGIUM
BE,EET,Éthe,Ethe,49.583333333333336,5.583333333333333,BELGIUM
BE,EVM,Evergem,Evergem,51.11666666666667,3.7,BELGIUM
BE,FCS,Farciennes,Farciennes,50.43333333333333,4.55,BELGIUM
BE,FEY,Feluy,Feluy,50.56666666666667,4.25,BELGIUM
BE,FWI,Flawinne,Flawinne,50.46666666666667,4.8,BELGIUM
BE,FMA,Flémalle,Flemalle,50.6,5.466666666666667,BELGIUM
BE,FLN,Flône,Flone,50.56666666666667,5.333333333333333,BELGIUM
BE,FLO,Floreffe,Floreffe,50.43333333333333,4.783333333333333,BELGIUM
BE,FFX,Floriffoux,Floriffoux,50.45,4.766666666666667,BELGIUM
BE,FVT,Fontaine-Valmont,Fontaine-Valmont,50.31666666666667,4.2,BELGIUM
BE,FRM,Fortem,Fortem,51.016666666666666,2.7333333333333334,BELGIUM
BE,FNR,Franière,Franiere,50.43333333333333,4.733333333333333,BELGIUM
BE,GVR,Gavere,Gavere,50.93333333333333,3.6666666666666665,BELGIUM
BE,GEL,Geel,Geel,51.166666666666664,5.0,BELGIUM
BE,GLK,Gellik,Gellik,50.88333333333333,5.6,BELGIUM
BE,GBH,Genenbos,Genenbos,51.016666666666666,5.233333333333333,BELGIUM
BE,GNK,Genk,Genk,50.96666666666667,5.5,BELGIUM
BE,GNE,Gent (Ghent),Gent (Ghent),51.05,3.716666666666667,BELGIUM
BE,GBU,Gentbrugge,Gentbrugge,51.05,3.75,BELGIUM
BE,GEA,Geraardsbergen,Geraardsbergen,50.766666666666666,3.8666666666666667,BELGIUM
BE,GHL,Ghlin,Ghlin,50.46666666666667,3.8833333333333333,BELGIUM
BE,GDN,Godinne,Godinne,50.35,4.866666666666667,BELGIUM
BE,GDE,Godsheide,Godsheide,50.93333333333333,5.383333333333334,BELGIUM
BE,GOS,Gosselies,Gosselies,50.46666666666667,4.416666666666667,BELGIUM
BE,GGM,Grembergen,Grembergen,51.05,4.1,BELGIUM
BE,GRB,Grimbergen,Grimbergen,50.93333333333333,4.383333333333334,BELGIUM
BE,GBB,Grobbendonk,Grobbendonk,51.2,4.716666666666667,BELGIUM
BE,GRO,Groot Bijgaarden,Groot Bijgaarden,50.86666666666667,4.266666666666667,BELGIUM
BE,HCT,Haccourt,Haccourt,50.733333333333334,5.666666666666667,BELGIUM
BE,HFB,Halle,Halle,50.733333333333334,4.233333333333333,BELGIUM
BE,HLU,Halluin,Halluin,50.78333333333333,3.1333333333333333,BELGIUM
BE,HMM,Hamme,Hamme,51.083333333333336,3.533333333333333,BELGIUM
BE,HAM,Hamsehoeven,Hamsehoeven,51.11666666666667,5.183333333333334,BELGIUM
BE,HMB,Ham-sur-Sambre,Ham-sur-Sambre,50.43333333333333,4.666666666666667,BELGIUM
BE,HNA,Handzame,Handzame,51.016666666666666,3.0,BELGIUM
BE,HBE,Hansbeke,Hansbeke,51.06666666666667,3.533333333333333,BELGIUM
BE,HCS,Harchies,Harchies,50.483333333333334,3.6833333333333336,BELGIUM
BE,HEJ,Harelbeke,Harelbeke,50.85,3.3,BELGIUM
BE,HAR,Haren,Haren,50.88333333333333,4.416666666666667,BELGIUM
BE,HSS,Hasselt,Hasselt,50.93333333333333,5.333333333333333,BELGIUM
BE,HPD,Hastière-par-delà,Hastiere-par-dela,50.21666666666667,4.833333333333333,BELGIUM
BE,HTJ,Hautrage,Hautrage,50.483333333333334,3.75,BELGIUM
BE,HRE,Havré,Havre,50.46666666666667,4.033333333333333,BELGIUM
BE,HEE,Heer,Heer,50.166666666666664,4.833333333333333,BELGIUM
BE,HDK,Heindonk,Heindonk,51.06666666666667,4.4,BELGIUM
BE,HKN,Helkijn,Helkijn,50.733333333333334,3.3833333333333333,BELGIUM
BE,HEX,Hemiksem,Hemiksem,51.15,4.35,BELGIUM
BE,HNS,Hensies,Hensies,50.43333333333333,3.6666666666666665,BELGIUM
BE,HYB,Herdersem,Herdersem,50.96666666666667,4.066666666666666,BELGIUM
BE,HET,Herent,Herent,51.2,5.45,BELGIUM
BE,HER,Herentals,Herentals,51.18333333333333,4.833333333333333,BELGIUM
BE,HMH,Hermalle-sous-Huy,Hermalle-sous-Huy,50.55,5.366666666666666,BELGIUM
BE,HTM,Hermeton-sur-Meuse,Hermeton-sur-Meuse,50.2,4.816666666666666,BELGIUM
BE,HRS,Herstal,Herstal,50.666666666666664,5.633333333333333,BELGIUM
BE,HVE,Hever,Hever,51.0,4.55,BELGIUM
BE,HBN,Hoboken,Hoboken,51.166666666666664,4.35,BELGIUM
BE,HSD,Hofstade,Hofstade,50.96666666666667,4.033333333333333,BELGIUM
BE,HOL,Hollain,Hollain,50.53333333333333,3.4166666666666665,BELGIUM
BE,HGA,Houdeng-Aimeries,Houdeng-Aimeries,50.483333333333334,4.133333333333334,BELGIUM
BE,HGG,Houdeng-Goegnies,Houdeng-Goegnies,50.483333333333334,4.15,BELGIUM
BE,HRP,Hourpes,Hourpes,50.36666666666667,4.283333333333333,BELGIUM
BE,HUX,Houx,Houx,50.3,4.9,BELGIUM
BE,HUM,Humbeek,Humbeek,50.96666666666667,4.383333333333334,BELGIUM
BE,HUY,Huy,Huy,50.516666666666666,5.233333333333333,BELGIUM
BE,IGE,Ingelmunster,Ingelmunster,50.916666666666664,3.25,BELGIUM
BE,ISR,Isières,Isieres,50.666666666666664,3.8166666666666664,BELGIUM
BE,ITR,Itter (Ittre),Itter (Ittre),50.65,4.266666666666667,BELGIUM
BE,ITR,Ittre (Itter),Ittre (Itter),50.65,4.266666666666667,BELGIUM
BE,YRT,Ivoz-Ramet,Ivoz-Ramet,50.583333333333336,5.433333333333334,BELGIUM
BE,IZG,Izegem,Izegem,50.916666666666664,3.2,BELGIUM
BE,JAM,Jambes,Jambes,50.45,4.883333333333333,BELGIUM
BE,JAV,Java,Java,50.516666666666666,5.15,BELGIUM
BE,JPS,Jemeppe-sur-Sambre,Jemeppe-sur-Sambre,50.46666666666667,4.666666666666667,BELGIUM
BE,JAK,Jupille-sur-Meuse,Jupille-sur-Meuse,50.65,5.633333333333333,BELGIUM
BE,KCT,Kachtem,Kachtem,50.93333333333333,3.183333333333333,BELGIUM
BE,KAI,Kain,Kain,50.63333333333333,3.3666666666666667,BELGIUM
BE,KOU,Kallo,Kallo,51.25,4.283333333333333,BELGIUM
BE,KMH,Kampenhout,Kampenhout,50.95,4.55,BELGIUM
BE,KAN,Kanne (Canne),Kanne (Canne),50.81666666666667,5.666666666666667,BELGIUM
BE,KPB,Kapelle-op-den-Bos,Kapelle-op-den-Bos,51.016666666666666,4.366666666666666,BELGIUM
BE,KLE,Kaulille,Kaulille,51.18333333333333,5.516666666666667,BELGIUM
BE,KHN,Kerkhove,Kerkhove,50.8,3.5,BELGIUM
BE,KSN,Kessenich,Kessenich,51.15,5.816666666666666,BELGIUM
BE,KDE,Kieldrecht,Kieldrecht,51.28333333333333,4.166666666666667,BELGIUM
BE,KRO,Kinrooi,Kinrooi,51.15,5.75,BELGIUM
BE,KVE,Klein Veerle,Klein Veerle,51.333333333333336,4.666666666666667,BELGIUM
BE,KSR,Kluisbergen,Kluisbergen,50.78333333333333,3.5166666666666666,BELGIUM
BE,KNS,Knesselaere,Knesselaere,51.13333333333333,3.4166666666666665,BELGIUM
BE,KJK,Kortrijk,Kortrijk,50.833333333333336,3.2666666666666666,BELGIUM
BE,KEK,Kruibeke,Kruibeke,51.166666666666664,4.316666666666666,BELGIUM
BE,KRN,Kuringen,Kuringen,50.95,5.3,BELGIUM
BE,KUU,Kuurne,Kuurne,50.85,3.283333333333333,BELGIUM
BE,KWA,Kwaadmechelen,Kwaadmechelen,51.1,5.133333333333334,BELGIUM
BE,RAR,La Roche-en-Ardenne,La Roche-en-Ardenne,50.18333333333333,5.583333333333333,BELGIUM
BE,BSI,Labuissière,Labuissiere,50.31666666666667,4.166666666666667,BELGIUM
BE,LUZ,Ladeuze,Ladeuze,50.56666666666667,3.7666666666666666,BELGIUM
BE,LAN,Lanaken,Lanaken,50.88333333333333,5.65,BELGIUM
BE,LNY,Lanaye (Ternaaien),Lanaye (Ternaaien),50.78333333333333,5.683333333333334,BELGIUM
BE,LGM,Landegem,Landegem,51.05,3.5666666666666664,BELGIUM
BE,LDS,Landelies,Landelies,50.38333333333333,4.35,BELGIUM
BE,LGB,Langerbrugge,Langerbrugge,51.11666666666667,3.7333333333333334,BELGIUM
BE,LGO,Langerlo,Langerlo,50.95,5.5,BELGIUM
BE,LNK,Lanklaar,Lanklaar,51.016666666666666,5.716666666666667,BELGIUM
BE,LQA,Lanquesaint,Lanquesaint,50.65,3.8,BELGIUM
BE,LPI,Laplaigne,Laplaigne,50.516666666666666,3.4333333333333336,BELGIUM
BE,LAW,Lauwe,Lauwe,50.8,3.183333333333333,BELGIUM
BE,ROU,Le Roeulx,Le Roeulx,50.5,4.1,BELGIUM
BE,LRG,Ledeberg,Ledeberg,51.03333333333333,3.75,BELGIUM
BE,LFE,Leffinge,Leffinge,51.166666666666664,2.8833333333333333,BELGIUM
BE,LBE,Lembeek,Lembeek,50.71666666666667,4.216666666666667,BELGIUM
BE,LPG,Leopoldsburg,Leopoldsburg,51.11666666666667,5.25,BELGIUM
BE,LES,Lessines,Lessines,50.71666666666667,3.8333333333333335,BELGIUM
BE,LEU,Leuven,Leuven,50.88333333333333,4.7,BELGIUM
BE,LHK,Liefkenshoek,Liefkenshoek,51.016666666666666,3.8833333333333333,BELGIUM
BE,LGG,Liège,Liege,50.63333333333333,5.566666666666666,BELGIUM
BE,LIE,Lier,Lier,51.13333333333333,4.566666666666666,BELGIUM
BE,LIL,Lillo,Lillo,51.3,4.3,BELGIUM
BE,LSG,Lissewege,Lissewege,51.3,3.183333333333333,BELGIUM
BE,LIX,Lixhe,Lixhe,50.75,5.666666666666667,BELGIUM
BE,LBS,Lobbes,Lobbes,50.35,4.25,BELGIUM
BE,LOK,Lokeren,Lokeren,51.1,3.9833333333333334,BELGIUM
BE,LML,Lommel,Lommel,51.233333333333334,5.3,BELGIUM
BE,LOT,Lot,Lot,50.766666666666666,4.266666666666667,BELGIUM
BE,LOZ,Lozen,Lozen,51.2,5.566666666666666,BELGIUM
BE,LUM,Lummen,Lummen,50.983333333333334,5.2,BELGIUM
BE,LUI,Lustin,Lustin,50.38333333333333,4.9,BELGIUM
BE,MSK,Maaseik,Maaseik,51.1,5.8,BELGIUM
BE,MMN,Maasmechelen,Maasmechelen,50.81666666666667,5.666666666666667,BELGIUM
BE,MFF,Maffle,Maffle,50.61666666666667,3.8,BELGIUM
BE,MSR,Maisières,Maisieres,50.483333333333334,3.95,BELGIUM
BE,MAN,Manage,Manage,50.5,4.216666666666667,BELGIUM
BE,WBR,Maransart,Maransart,50.666666666666664,4.45,BELGIUM
BE,MLD,Marche-les-Dames,Marche-les-Dames,50.483333333333334,4.966666666666667,BELGIUM
BE,MAP,Marchienne-au-Pont,Marchienne-au-Pont,50.4,4.383333333333334,BELGIUM
BE,MLY,Marly,Marly,50.88333333333333,4.383333333333334,BELGIUM
BE,MHN,Massenhoven,Massenhoven,51.2,4.616666666666667,BELGIUM
BE,MBY,Maubray,Maubray,50.55,3.5,BELGIUM
BE,MRG,Maurage,Maurage,50.45,4.083333333333333,BELGIUM
BE,ECH,Mechelen,Mechelen,51.03333333333333,4.466666666666667,BELGIUM
BE,MEE,Meer,Meer,51.45,4.733333333333333,BELGIUM
BE,MEH,Meerhout,Meerhout,51.13333333333333,5.083333333333333,BELGIUM
BE,MGM,Meigem,Meigem,51.016666666666666,3.533333333333333,BELGIUM
BE,MEG,Meilegem,Meilegem,50.9,3.7,BELGIUM
BE,MEL,Melle,Melle,51.0,3.8,BELGIUM
BE,ELS,Melsen,Melsen,50.96666666666667,3.7,BELGIUM
BE,MEN,Menen,Menen,50.8,3.1166666666666667,BELGIUM
BE,MRL,Merelbeke,Merelbeke,51.0,3.75,BELGIUM
BE,MRD,Merendree,Merendree,51.083333333333336,3.5833333333333335,BELGIUM
BE,MRM,Merkem,Merkem,50.95,2.85,BELGIUM
BE,MRK,Merksem,Merksem,51.25,4.45,BELGIUM
BE,MSP,Mespelare,Mespelare,51.0,4.066666666666666,BELGIUM
BE,MNO,Moen,Moen,50.766666666666666,3.4,BELGIUM
BE,MEW,Moerbeke-Waas,Moerbeke-Waas,51.166666666666664,3.9333333333333336,BELGIUM
BE,MRB,Moerbrugge,Moerbrugge,51.166666666666664,3.2666666666666666,BELGIUM
BE,MZK,Moerzeke,Moerzeke,51.06666666666667,4.15,BELGIUM
BE,MGN,Moignelée,Moignelee,50.45,4.583333333333333,BELGIUM
BE,MLO,Mol,Mol,51.18333333333333,5.1,BELGIUM
BE,MSJ,Molenbeek-Saint-Jean (Sint-Jans-Molenbeek)/Brussel (Bruxelles),Molenbeek-Saint-Jean (Sint-Jans-Molenbeek)/Brussel (Bruxelles),50.85,4.316666666666666,BELGIUM
BE,MSS,Monceau-sur-Sambre,Monceau-sur-Sambre,50.416666666666664,4.366666666666666,BELGIUM
BE,MQS,Mons,Mons,50.45,3.9333333333333336,BELGIUM
BE,MSI,Monsin,Monsin,50.666666666666664,5.633333333333333,BELGIUM
BE,MGS,Montignies-sur-Sambre,Montignies-sur-Sambre,50.4,4.5,BELGIUM
BE,MRO,Mornimont,Mornimont,50.45,4.7,BELGIUM
BE,MUI,Muizen,Muizen,51.016666666666666,4.516666666666667,BELGIUM
BE,NMC,Namêche,Nameche,50.46666666666667,5.0,BELGIUM
BE,NAM,Namur,Namur,50.46666666666667,4.866666666666667,BELGIUM
BE,NVH,Neder-Over-Heembeek,Neder-Over-Heembeek,50.9,4.383333333333334,BELGIUM
BE,NHA,Neerharen,Neerharen,50.916666666666664,5.683333333333334,BELGIUM
BE,NRT,Neeroeteren,Neeroeteren,51.083333333333336,5.7,BELGIUM
BE,NRP,Neerpelt,Neerpelt,51.21666666666667,5.416666666666667,BELGIUM
BE,NFE,Neffe,Neffe,50.233333333333334,4.916666666666667,BELGIUM
BE,NHY,Neuville-sous-Huy,Neuville-sous-Huy,50.53333333333333,5.283333333333333,BELGIUM
BE,NVL,Nevele,Nevele,51.03333333333333,3.55,BELGIUM
BE,NIL,Niel,Niel,51.11666666666667,4.333333333333333,BELGIUM
BE,NIE,Nieuwpoort,Nieuwpoort,51.13333333333333,2.75,BELGIUM
BE,NYL,Nijlen,Nijlen,51.166666666666664,4.65,BELGIUM
BE,NBA,Nimy,Nimy,50.46666666666667,3.95,BELGIUM
BE,NNV,Ninove,Ninove,50.833333333333336,4.016666666666667,BELGIUM
BE,NVN,Noeveren,Noeveren,51.1,4.35,BELGIUM
BE,OBR,Obourg,Obourg,50.46666666666667,4.0,BELGIUM
BE,OEL,Oelegem,Oelegem,51.21666666666667,4.583333333333333,BELGIUM
BE,OSG,Oeselgem,Oeselgem,50.93333333333333,3.4333333333333336,BELGIUM
BE,OEV,Oevel,Oevel,51.13333333333333,4.883333333333333,BELGIUM
BE,OQC,Oisquercq,Oisquercq,50.666666666666664,4.216666666666667,BELGIUM
BE,OKG,Okegem,Okegem,50.85,4.05,BELGIUM
BE,OLN,Olen,Olen,51.15,4.85,BELGIUM
BE,OGS,Ollignies,Ollignies,50.68333333333333,3.85,BELGIUM
BE,OBT,Ombret-Rawsa,Ombret-Rawsa,50.55,5.333333333333333,BELGIUM
BE,OZL,Onkerzele,Onkerzele,50.78333333333333,3.9,BELGIUM
BE,OOG,Ooigem,Ooigem,50.88333333333333,3.3333333333333335,BELGIUM
BE,OST,Oostende (Ostend),Oostende (Ostend),51.2,2.9166666666666665,BELGIUM
BE,OTL,Oosterlo,Oosterlo,51.11666666666667,4.966666666666667,BELGIUM
BE,OKP,Oostkamp,Oostkamp,51.15,3.2333333333333334,BELGIUM
BE,OTK,Oostkerke,Oostkerke,51.28333333333333,3.283333333333333,BELGIUM
BE,OHN,Ophoven,Ophoven,51.11666666666667,5.8,BELGIUM
BE,OPI,Opitter,Opitter,51.11666666666667,5.65,BELGIUM
BE,ORR,Orroir,Orroir,50.75,3.466666666666667,BELGIUM
BE,OST,Ostend (Oostende),Ostend (Oostende),51.2,2.9166666666666665,BELGIUM
BE,OUD,Oudenaarde,Oudenaarde,50.85,3.6,BELGIUM
BE,OBG,Oudenburg,Oudenburg,51.18333333333333,3.0,BELGIUM
BE,ODE,Oudergem (Auderghem)/Brussel (Bruxelles),Oudergem (Auderghem)/Brussel (Bruxelles),50.81666666666667,4.433333333333334,BELGIUM
BE,OTH,Oud-Turnhout,Oud-Turnhout,51.31666666666667,4.983333333333333,BELGIUM
BE,OUG,Ougrée,Ougree,50.6,5.533333333333333,BELGIUM
BE,OPY,Oupeye,Oupeye,50.7,5.65,BELGIUM
BE,OLE,Overboelare,Overboelare,50.75,3.85,BELGIUM
BE,OVE,Overpelt,Overpelt,51.21666666666667,5.416666666666667,BELGIUM
BE,PAL,Paal,Paal,51.03333333333333,5.183333333333334,BELGIUM
BE,PML,Pamel,Pamel,50.833333333333336,4.066666666666666,BELGIUM
BE,PCQ,Pecq,Pecq,50.68333333333333,3.3333333333333335,BELGIUM
BE,PES,Péronnes,Peronnes,50.55,3.4333333333333336,BELGIUM
BE,PLB,Péronnes/Binche,Peronnes/Binche,50.43333333333333,4.133333333333334,BELGIUM
BE,PLY,Petit-Lanaye,Petit-Lanaye,50.78333333333333,5.683333333333334,BELGIUM
BE,PTP,Pijp Tabak,Pijp Tabak,51.233333333333334,4.35,BELGIUM
BE,PKH,Pollinkhove,Pollinkhove,50.96666666666667,2.7333333333333334,BELGIUM
BE,PME,Pommeroeul,Pommeroeul,50.45,3.7,BELGIUM
BE,PCL,Pont-à-Celles,Pont-a-Celles,50.5,4.35,BELGIUM
BE,PLO,Pont-de-Loup,Pont-de-Loup,50.416666666666664,4.533333333333333,BELGIUM
BE,PTS,Pottes,Pottes,50.733333333333334,3.4,BELGIUM
BE,PFE,Profondeville,Profondeville,50.38333333333333,4.866666666666667,BELGIUM
BE,PUU,Puurs,Puurs,51.083333333333336,4.283333333333333,BELGIUM
BE,RCI,Ramegnies-Chin,Ramegnies-Chin,50.65,3.3166666666666664,BELGIUM
BE,RVS,Ravels,Ravels,51.36666666666667,5.0,BELGIUM
BE,RBX,Rebaix,Rebaix,50.65,3.783333333333333,BELGIUM
BE,REK,Rekkem,Rekkem,50.833333333333336,3.6166666666666667,BELGIUM
BE,RGE,Reninge,Reninge,50.95,2.783333333333333,BELGIUM
BE,NRY,Renory,Renory,50.6,5.55,BELGIUM
BE,RTI,Retie,Retie,51.266666666666666,5.066666666666666,BELGIUM
BE,RCL,Richelle,Richelle,50.71666666666667,5.683333333333334,BELGIUM
BE,RIE,Rieme,Rieme,51.166666666666664,3.783333333333333,BELGIUM
BE,RIJ,Rijkevorsel,Rijkevorsel,51.35,4.766666666666667,BELGIUM
BE,RVE,Rivière,Riviere,50.35,4.866666666666667,BELGIUM
BE,RJT,Rocourt,Rocourt,50.68333333333333,5.55,BELGIUM
BE,RBE,Roesbrugge,Roesbrugge,50.916666666666664,2.6166666666666667,BELGIUM
BE,RHA,Roesbrugge-Haringe,Roesbrugge-Haringe,50.916666666666664,2.6166666666666667,BELGIUM
BE,ROE,Roeselare,Roeselare,50.95,3.1333333333333333,BELGIUM
BE,RQS,Ronquières,Ronquieres,50.6,4.216666666666667,BELGIUM
BE,ROS,Roselies,Roselies,50.43333333333333,4.583333333333333,BELGIUM
BE,RCT,Roucourt,Roucourt,50.53333333333333,3.5833333333333335,BELGIUM
BE,ROX,Roux,Roux,50.43333333333333,4.383333333333334,BELGIUM
BE,RUE,Ruien,Ruien,50.766666666666666,3.4833333333333334,BELGIUM
BE,SVG,Ruisbroek,Ruisbroek,51.083333333333336,4.333333333333333,BELGIUM
BE,RUI,Ruisbroek,Ruisbroek,50.78333333333333,4.3,BELGIUM
BE,RUS,Rumst,Rumst,51.083333333333336,4.416666666666667,BELGIUM
BE,RPM,Rupelmonde,Rupelmonde,51.13333333333333,4.283333333333333,BELGIUM
BE,GHI,Saint-Ghislain,Saint-Ghislain,50.45,3.8166666666666664,BELGIUM
BE,SLS,Salles,Salles,50.05,4.25,BELGIUM
BE,SSO,Samson,Samson,50.46666666666667,4.983333333333333,BELGIUM
BE,VIT,Sankt Vith,Sankt Vith,50.666666666666664,6.7,BELGIUM
BE,SLJ,Sas-Slijkens,Sas-Slijkens,51.21666666666667,2.95,BELGIUM
BE,SPE,Scheepsdale,Scheepsdale,51.21666666666667,3.2,BELGIUM
BE,SHR,Schelderode,Schelderode,50.96666666666667,3.716666666666667,BELGIUM
BE,SHL,Schelle,Schelle,51.13333333333333,4.333333333333333,BELGIUM
BE,SHB,Schellebelle,Schellebelle,51.016666666666666,3.9333333333333336,BELGIUM
BE,SCE,Schilde,Schilde,51.233333333333334,4.566666666666666,BELGIUM
BE,SNE,Schoonaarde,Schoonaarde,51.0,4.016666666666667,BELGIUM
BE,SCT,Schoten,Schoten,51.25,4.5,BELGIUM
BE,SGX,Sclaigneaux,Sclaigneaux,50.5,5.0,BELGIUM
BE,SLY,Sclayn,Sclayn,50.483333333333334,5.033333333333333,BELGIUM
BE,SSN,Sclessin,Sclessin,50.61666666666667,5.55,BELGIUM
BE,SES,Seilles,Seilles,50.5,5.066666666666666,BELGIUM
BE,SEN,Seneffe,Seneffe,50.516666666666666,4.25,BELGIUM
BE,ZER,Seraing,Seraing,50.6,5.483333333333333,BELGIUM
BE,SAS,Sint-Amands,Sint-Amands,51.05,4.2,BELGIUM
BE,SAN,Sint-Andries,Sint-Andries,51.18333333333333,3.183333333333333,BELGIUM
BE,HSL,Sint-Huibrechts-Lille,Sint-Huibrechts-Lille,51.21666666666667,5.483333333333333,BELGIUM
BE,JKP,Sint-Jacobs-Kapelle,Sint-Jacobs-Kapelle,51.0,2.8166666666666664,BELGIUM
BE,MSJ,Sint-Jans-Molenbeek (Molenbeek-Saint-Jean)/Brussel (Bruxelles),Sint-Jans-Molenbeek (Molenbeek-Saint-Jean)/Brussel (Bruxelles),50.85,4.316666666666666,BELGIUM
BE,SJG,Sint-Job-in-'t-Goor,Sint-Job-in-'t-Goor,51.3,4.566666666666666,BELGIUM
BE,SJR,Sint-Joris,Sint-Joris,51.13333333333333,2.7666666666666666,BELGIUM
BE,SJO,Sint-Jozef-Olen,Sint-Jozef-Olen,51.18333333333333,4.883333333333333,BELGIUM
BE,SLN,Sint-Lenaarts,Sint-Lenaarts,51.35,4.683333333333334,BELGIUM
BE,SML,Sint-Martens-Latem,Sint-Martens-Latem,51.016666666666666,3.6333333333333333,BELGIUM
BE,SSK,Snaaskerke,Snaaskerke,51.18333333333333,2.9333333333333336,BELGIUM
BE,SSB,Solre-sur-Sambre,Solre-sur-Sambre,50.3,4.133333333333334,BELGIUM
BE,SDT,Soudromont,Soudromont,50.516666666666666,4.25,BELGIUM
BE,SPI,Spiere (Espierres),Spiere (Espierres),50.71666666666667,3.35,BELGIUM
BE,SBG,Stambruges,Stambruges,50.5,3.716666666666667,BELGIUM
BE,SGM,Stasegem,Stasegem,50.833333333333336,3.3,BELGIUM
BE,STT,Statte,Statte,50.53333333333333,5.216666666666667,BELGIUM
BE,SBE,Steenbrugge,Steenbrugge,51.18333333333333,3.2333333333333334,BELGIUM
BE,SDP,Steendorp,Steendorp,51.13333333333333,4.266666666666667,BELGIUM
BE,SVN,Stevensvennen,Stevensvennen,51.21666666666667,5.233333333333333,BELGIUM
BE,SKR,Stokrooie,Stokrooie,50.96666666666667,5.266666666666667,BELGIUM
BE,TMS,Tamines,Tamines,50.43333333333333,4.6,BELGIUM
BE,TSE,Temse,Temse,51.13333333333333,4.216666666666667,BELGIUM
BE,TFN,Teralfene,Teralfene,50.9,4.1,BELGIUM
BE,TDK,Terdonk,Terdonk,51.15,3.783333333333333,BELGIUM
BE,TGE,Tergnée,Tergnee,50.43333333333333,4.55,BELGIUM
BE,TGN,Terhagen,Terhagen,51.083333333333336,4.4,BELGIUM
BE,LNY,Ternaaien (Lanaye),Ternaaien (Lanaye),50.78333333333333,5.683333333333334,BELGIUM
BE,TER,Ternat,Ternat,50.86666666666667,4.183333333333334,BELGIUM
BE,TET,Tertre,Tertre,50.46666666666667,3.8,BELGIUM
BE,TES,Tessenderlo,Tessenderlo,51.06666666666667,5.083333333333333,BELGIUM
BE,THE,Thieu,Thieu,50.46666666666667,4.083333333333333,BELGIUM
BE,TOB,Thorntonbank,Thorntonbank,51.63333333333333,2.9166666666666665,BELGIUM
BE,THU,Thuin,Thuin,50.333333333333336,4.283333333333333,BELGIUM
BE,TIL,Tielrode,Tielrode,51.11666666666667,4.183333333333334,BELGIUM
BE,THG,Tihange,Tihange,50.53333333333333,5.266666666666667,BELGIUM
BE,TLK,Tildonk,Tildonk,50.95,4.633333333333333,BELGIUM
BE,TLR,Tilleur,Tilleur,50.61666666666667,5.533333333333333,BELGIUM
BE,TIS,Tisselt,Tisselt,51.03333333333333,4.366666666666666,BELGIUM
BE,TGL,Tongerlo,Tongerlo,51.13333333333333,5.666666666666667,BELGIUM
BE,TSL,Tourinnes-St-Lambert,Tourinnes-St-Lambert,50.63333333333333,4.716666666666667,BELGIUM
BE,TRN,Tournai (Doornik),Tournai (Doornik),50.6,3.3833333333333333,BELGIUM
BE,TBE,Tournebride,Tournebride,50.9,5.683333333333334,BELGIUM
BE,TUR,Turnhout,Turnhout,51.31666666666667,4.95,BELGIUM
BE,UIT,Uitbergen,Uitbergen,51.016666666666666,3.95,BELGIUM
BE,VSB,Val Saint-Lambert,Val Saint-Lambert,50.583333333333336,5.483333333333333,BELGIUM
BE,VLX,Vaulx,Vaulx,50.06666666666667,4.366666666666666,BELGIUM
BE,VWZ,Veldwezelt,Veldwezelt,50.86666666666667,5.633333333333333,BELGIUM
BE,VBG,Verbrande Brug,Verbrande Brug,50.95,4.416666666666667,BELGIUM
BE,VEU,Veurne,Veurne,51.06666666666667,2.6666666666666665,BELGIUM
BE,VZI,Vezin,Vezin,50.5,5.016666666666667,BELGIUM
BE,VSL,Viersel,Viersel,51.18333333333333,4.633333333333333,BELGIUM
BE,VVI,Viesville,Viesville,50.483333333333334,4.4,BELGIUM
BE,VSH,Ville-sur-Haine,Ville-sur-Haine,50.46666666666667,4.05,BELGIUM
BE,VIL,Vilvoorde,Vilvoorde,50.93333333333333,4.433333333333334,BELGIUM
BE,VGL,Virginal-Samme,Virginal-Samme,50.63333333333333,4.183333333333334,BELGIUM
BE,VHN,Vroenhoven,Vroenhoven,50.81666666666667,5.633333333333333,BELGIUM
BE,WDM,Waardamme,Waardamme,51.11666666666667,3.216666666666667,BELGIUM
BE,WAA,Waasmunster,Waasmunster,51.1,4.083333333333333,BELGIUM
BE,WLM,Walem,Walem,51.06666666666667,4.466666666666667,BELGIUM
BE,WND,Wandre,Wandre,50.666666666666664,5.65,BELGIUM
BE,WAN,Wanze,Wanze,50.53333333333333,5.216666666666667,BELGIUM
BE,WCG,Warcoing,Warcoing,50.7,3.3333333333333335,BELGIUM
BE,WAR,Waregem,Waregem,50.88333333333333,3.4166666666666665,BELGIUM
BE,BWN,Warneton,Warneton,50.75,2.95,BELGIUM
BE,WLT,Waulsort,Waulsort,50.21666666666667,4.866666666666667,BELGIUM
BE,WEL,Wellen,Wellen,50.85,5.316666666666666,BELGIUM
BE,WIP,Wépion,Wepion,50.416666666666664,4.866666666666667,BELGIUM
BE,WER,Wervik,Wervik,50.78333333333333,3.033333333333333,BELGIUM
BE,WET,Wetteren,Wetteren,51.0,3.8833333333333333,BELGIUM
BE,WEV,Wevelgem,Wevelgem,50.8,3.1666666666666665,BELGIUM
BE,WIH,Wichelen,Wichelen,51.0,3.9833333333333334,BELGIUM
BE,WIR,Wiers,Wiers,50.5,3.533333333333333,BELGIUM
BE,WGL,Wijgmaal,Wijgmaal,50.93333333333333,4.7,BELGIUM
BE,WJG,Wijnegem,Wijnegem,51.233333333333334,4.533333333333333,BELGIUM
BE,WLB,Willebroek,Willebroek,51.06666666666667,4.366666666666666,BELGIUM
BE,WEE,Wingene,Wingene,51.06666666666667,3.2666666666666666,BELGIUM
BE,WTH,Wintham,Wintham,51.1,4.3,BELGIUM
BE,WDG,Wondelgem,Wondelgem,51.083333333333336,3.716666666666667,BELGIUM
BE,WLP,Wulpen,Wulpen,51.1,2.7,BELGIUM
BE,YVO,Yvoir,Yvoir,50.333333333333336,4.883333333333333,BELGIUM
BE,ZBR,Zandbergen,Zandbergen,50.8,3.966666666666667,BELGIUM
BE,ZVT,Zandvliet,Zandvliet,51.36666666666667,4.3,BELGIUM
BE,ZVD,Zandvoorde,Zandvoorde,51.2,2.966666666666667,BELGIUM
BE,ZEE,Zeebrugge,Zeebrugge,51.333333333333336,3.2,BELGIUM
BE,ZLE,Zele,Zele,51.06666666666667,4.033333333333333,BELGIUM
BE,ZEL,Zelzate,Zelzate,51.2,3.8166666666666664,BELGIUM
BE,ZET,Zemst,Zemst,50.983333333333334,4.466666666666667,BELGIUM
BE,ZGM,Zingem,Zingem,50.9,3.65,BELGIUM
BE,ZOD,Zolder,Zolder,51.016666666666666,5.3,BELGIUM
BE,ZRM,Zomergem,Zomergem,51.11666666666667,3.55,BELGIUM
BE,ZUN,Zuen (Zuun),Zuen (Zuun),50.78333333333333,4.266666666666667,BELGIUM
BE,ZUL,Zulte,Zulte,50.916666666666664,3.4333333333333336,BELGIUM
BE,ZTL,Zutendaal,Zutendaal,50.93333333333333,5.566666666666666,BELGIUM
BE,ZUN,Zuun (Zuen),Zuun (Zuen),50.78333333333333,4.266666666666667,BELGIUM
BE,ZWE,Zwevegem,Zwevegem,50.8,3.3333333333333335,BELGIUM
BE,ZWN,Zwijnaarde,Zwijnaarde,51.0,3.716666666666667,BELGIUM
BE,ZWL,Zwijndrecht,Zwijndrecht,51.21666666666667,4.333333333333333,BELGIUM
BF,OB2,Ziniaré,Ziniare,12.583333333333334,-1.3,BURKINA FASO
BG,AKH,Akhtopol,Akhtopol,42.1,27.95,BULGARIA
BG,BAL,Balchik,Balchik,43.416666666666664,28.166666666666668,BULGARIA
BG,VT4,Byala Cherkva,Byala Cherkva,43.2,25.3,BULGARIA
BG,BSL,Byala Slatina,Byala Slatina,43.46666666666667,23.95,BULGARIA
BG,GUR,Gurkovo,Gurkovo,42.65,25.783333333333335,BULGARIA
BG,4IG,Ignatievo,Ignatievo,43.25,27.766666666666666,BULGARIA
BG,KUK,Kuklen,Kuklen,42.03333333333333,24.783333333333335,BULGARIA
BG,MAB,Marchevo,Marchevo,41.6,23.8,BULGARIA
BG,NES,Nessebar,Nessebar,42.65,27.733333333333334,BULGARIA
BG,NPO,Nikopol,Nikopol,43.68333333333333,24.883333333333333,BULGARIA
BG,OKH,Oryakhovo,Oryakhovo,43.733333333333334,23.95,BULGARIA
BG,RDU,Ruse,Ruse,43.85,25.966666666666665,BULGARIA
BG,SOZ,Sozopol,Sozopol,42.416666666666664,27.7,BULGARIA
BG,S3W,Straldzha,Straldzha,42.6,26.683333333333334,BULGARIA
BH,AHD,Al Hidd,Al Hidd,26.233333333333334,50.65,BAHRAIN
BH,GBQ,Al Muharraq,Al Muharraq,26.25,50.6,BAHRAIN
BH,KBS,Khalifa Bin Salman Port,Khalifa Bin Salman Port,26.2,50.61666666666667,BAHRAIN
BH,MIN,Mina Sulman Port,Mina Sulman Port,26.2,50.61666666666667,BAHRAIN
BH,SIT,Sitrah,Sitrah,26.133333333333333,50.61666666666667,BAHRAIN
BI,CBK,Cibitoke,Cibitoke,-3.3333333333333335,29.366666666666667,BURUNDI
BJ,PTN,Porto-Novo,Porto-Novo,6.483333333333333,2.6166666666666667,BENIN
BL,SBH,Saint-Barthélemy,Saint-Barthelemy,17.9,-62.85,SAINT BARTHÉLEMY
BM,SEV,Devonshire,Devonshire,32.3,-64.75,BERMUDA
BM,HBI,Harbour Island,Harbour Island,25.5,-76.63333333333334,BERMUDA
BM,SGE,Saint George,Saint George,32.38333333333333,-64.68333333333334,BERMUDA
BM,SAN,Sandys,Sandys,32.3,-64.86666666666666,BERMUDA
BM,SOU,Southampton,Southampton,32.25,-64.85,BERMUDA
BN,BWN,Bandar Seri Begawan,Bandar Seri Begawan,4.883333333333333,114.93333333333334,BRUNEI DARUSSALAM
BO,CPB,Copacabana,Copacabana,-16.15,-69.08333333333333,"BOLIVIA, PLURINATIONAL STATE OF"
BO,GUQ,Guaqui,Guaqui,-16.583333333333332,-68.86666666666666,"BOLIVIA, PLURINATIONAL STATE OF"
BO,HTJ,Huatajata,Huatajata,-16.166666666666668,-68.73333333333333,"BOLIVIA, PLURINATIONAL STATE OF"
BO,PBU,Puerto Busch,Puerto Busch,-20.033333333333335,-57.96666666666667,"BOLIVIA, PLURINATIONAL STATE OF"
BO,PTC,Puerto Carabuco,Puerto Carabuco,-15.75,-69.06666666666666,"BOLIVIA, PLURINATIONAL STATE OF"
BO,PPR,Puerto Pérez,Puerto Perez,-16.266666666666666,-68.63333333333334,"BOLIVIA, PLURINATIONAL STATE OF"
BO,QJR,Puerto Quijarro,Puerto Quijarro,-17.783333333333335,-57.766666666666666,"BOLIVIA, PLURINATIONAL STATE OF"
BO,PUR,Puerto Rico,Puerto Rico,-11.083333333333334,-67.63333333333334,"BOLIVIA, PLURINATIONAL STATE OF"
BO,PSZ,Puerto Suárez,Puerto Suarez,-18.95,-57.8,"BOLIVIA, PLURINATIONAL STATE OF"
BO,RIB,Riberalta,Riberalta,-10.983333333333333,-66.1,"BOLIVIA, PLURINATIONAL STATE OF"
BO,RBQ,Rurrenabaque,Rurrenabaque,-14.466666666666667,-67.56666666666666,"BOLIVIA, PLURINATIONAL STATE OF"
BO,TDD,Trinidad,Trinidad,-14.833333333333334,-64.9,"BOLIVIA, PLURINATIONAL STATE OF"
BQ,BON,Bonaire,Bonaire,12.116666666666667,-68.26666666666667,"BONAIRE, SINT EUSTATIUS AND SABA"
BQ,RIN,Dorp Rincón,Dorp Rincon,12.233333333333333,-68.33333333333333,"BONAIRE, SINT EUSTATIUS AND SABA"
BQ,GOT,Goto,Goto,12.216666666666667,-68.38333333333334,"BONAIRE, SINT EUSTATIUS AND SABA"
BQ,KRA,Kralendijk,Kralendijk,12.15,-68.26666666666667,"BONAIRE, SINT EUSTATIUS AND SABA"
BQ,SAB,Saba,Saba,17.633333333333333,-63.233333333333334,"BONAIRE, SINT EUSTATIUS AND SABA"
BQ,EUX,Sint Eustatius,Sint Eustatius,17.483333333333334,-62.96666666666667,"BONAIRE, SINT EUSTATIUS AND SABA"
BR,ABT,Abaeté,Abaete,-19.15,-45.45,BRAZIL
BR,ATB,Abaetetuba,Abaetetuba,-1.7,-48.9,BRAZIL
BR,ADL,Abelardo Luz,Abelardo Luz,-26.566666666666666,-52.333333333333336,BRAZIL
BR,ACX,Açu Pt/São João da Barra,Acu Pt/Sao Joao da Barra,-21.833333333333332,-41.0,BRAZIL
BR,AGS,Alagoinhas,Alagoinhas,-12.133333333333333,-38.416666666666664,BRAZIL
BR,ALH,Alhandra,Alhandra,-7.433333333333334,-34.9,BRAZIL
BR,ALP,Alpinópolis,Alpinopolis,-20.866666666666667,-46.38333333333333,BRAZIL
BR,ALU,Alumar,Alumar,-2.6666666666666665,-44.35,BRAZIL
BR,ADR,Angra dos Reis,Angra dos Reis,-23.0,-44.3,BRAZIL
BR,ARE,Areia Branca,Areia Branca,-4.95,-37.13333333333333,BRAZIL
BR,BUN,Barauna,Barauna,-5.083333333333333,-37.61666666666667,BRAZIL
BR,RCH,Barra do Riacho Pt / Aracruz,Barra do Riacho Pt / Aracruz,-19.85,-40.05,BRAZIL
BR,BAR,Barra dos Coqueiros,Barra dos Coqueiros,-10.9,-37.05,BRAZIL
BR,BEL,Belem,Belem,-1.45,-48.5,BRAZIL
BR,BVS,Breves,Breves,-1.6666666666666665,-50.483333333333334,BRAZIL
BR,CDO,Cabedelo Pt,Cabedelo Pt,-6.966666666666667,-34.833333333333336,BRAZIL
BR,CDM,Cachoeiras de Macacu,Cachoeiras de Macacu,-22.483333333333334,-42.65,BRAZIL
BR,CBU,Camboriú,Camboriu,-26.983333333333334,-48.63333333333333,BRAZIL
BR,CPI,Capivari,Capivari,-23.016666666666666,-47.516666666666666,BRAZIL
BR,CAV,Casa Nova,Casa Nova,-9.383333333333333,-41.166666666666664,BRAZIL
BR,CEA,Ceará-Mirim,Ceara-Mirim,-5.633333333333333,-35.416666666666664,BRAZIL
BR,CDA,Codajás,Codajas,-3.8333333333333335,-62.083333333333336,BRAZIL
BR,CUA,Curaçá,Curaca,-8.983333333333333,-39.9,BRAZIL
BR,DIA,Dias d'Ávila,Dias d'Avila,-12.616666666666667,-38.3,BRAZIL
BR,ESA,Estrema,Estrema,-8.2,-72.93333333333334,BRAZIL
BR,FEN,Fernando de Noronha,Fernando de Noronha,-3.85,-32.416666666666664,BRAZIL
BR,FLN,Florianópolis,Florianopolis,-27.583333333333332,-48.56666666666667,BRAZIL
BR,FNO,Forno Pt/Arraial do Cabo,Forno Pt/Arraial do Cabo,-22.966666666666665,-42.03333333333333,BRAZIL
BR,GUA,Guamaré,Guamare,-5.1,-36.31666666666667,BRAZIL
BR,GTB,Guaratuba,Guaratuba,-25.916666666666668,-48.583333333333336,BRAZIL
BR,IPO,Ipojuca,Ipojuca,-8.4,-35.05,BRAZIL
BR,IRO,Itabirito,Itabirito,-20.25,-43.8,BRAZIL
BR,IAR,Itacoatiara,Itacoatiara,-3.1333333333333333,-58.43333333333333,BRAZIL
BR,SPB,Itaguaí Pt = Sepetiba Pt,Itaguai Pt = Sepetiba Pt,-22.866666666666667,-43.78333333333333,BRAZIL
BR,ITZ,Itapemirim,Itapemirim,-21.016666666666666,-40.833333333333336,BRAZIL
BR,IOA,Itapoá,Itapoa,-26.116666666666667,-48.6,BRAZIL
BR,IQI,Itaqui,Itaqui,-2.6,-44.35,BRAZIL
BR,JRV,Jaguariaíva,Jaguariaiva,-24.25,-49.7,BRAZIL
BR,JPA,Joao Pessoa,Joao Pessoa,-7.116666666666666,-34.86666666666667,BRAZIL
BR,JUR,Juruti,Juruti,-2.1666666666666665,-56.083333333333336,BRAZIL
BR,LDF,Lauro de Freitas,Lauro de Freitas,-12.916666666666666,-38.35,BRAZIL
BR,MAI,Macaiba,Macaiba,-5.85,-35.35,BRAZIL
BR,MCZ,Maceió,Maceio,-9.666666666666666,-35.71666666666667,BRAZIL
BR,MGU,Munguba,Munguba,-0.9,-52.416666666666664,BRAZIL
BR,NVT,Navegantes,Navegantes,-26.9,-48.65,BRAZIL
BR,HAR,Nova Hartz,Nova Hartz,-29.566666666666666,-50.9,BRAZIL
BR,NVU,Nova União,Nova Uniao,-19.683333333333334,-43.56666666666667,BRAZIL
BR,OUT,Outeiro,Outeiro,-1.25,-48.43333333333333,BRAZIL
BR,PNN,Paranã,Parana,-12.55,-47.85,BRAZIL
BR,PNG,Paranaguá,Paranagua,-25.516666666666666,-48.5,BRAZIL
BR,PHB,Parnaíba,Parnaiba,-2.9166666666666665,-41.766666666666666,BRAZIL
BR,PEC,Pecém Pt/São Gonçalo do Amarante,Pecem Pt/Sao Goncalo do Amarante,-3.533333333333333,-38.86666666666667,BRAZIL
BR,PEN,Pedras Negras,Pedras Negras,-12.85,-62.9,BRAZIL
BR,POM,Pomerode,Pomerode,-26.75,-49.166666666666664,BRAZIL
BR,PMA,Ponta da Madeira,Ponta da Madeira,-2.55,-44.36666666666667,BRAZIL
BR,POU,Ponta do Ubu Pt/Anchieta,Ponta do Ubu Pt/Anchieta,-20.783333333333335,-40.583333333333336,BRAZIL
BR,POI,Potim,Potim,-22.833333333333332,-45.25,BRAZIL
BR,REL,Regência Terminal/Linhares,Regencia Terminal/Linhares,-19.633333333333333,-39.81666666666667,BRAZIL
BR,QRZ,Resende,Resende,-22.466666666666665,-44.45,BRAZIL
BR,RIO,Rio de Janeiro,Rio de Janeiro,-22.883333333333333,-43.233333333333334,BRAZIL
BR,SAL,Salto Grande,Salto Grande,-22.95,-49.96666666666667,BRAZIL
BR,SLV,Salvaterra,Salvaterra,-0.7666666666666667,-48.516666666666666,BRAZIL
BR,MCP,Santana Pt./Macapá,Santana Pt./Macapa,-0.05,-51.166666666666664,BRAZIL
BR,STA,Santo Antônio de Pádua,Santo Antonio de Padua,-21.566666666666666,-42.18333333333333,BRAZIL
BR,SSZ,Santos,Santos,-23.95,-46.333333333333336,BRAZIL
BR,SLZ,São Luís,Sao Luis,-2.5,-44.3,BRAZIL
BR,SBJ,São Mateus,Sao Mateus,-18.716666666666665,-39.85,BRAZIL
BR,SOM,São Tomé,Sao Tome,-22.866666666666667,-51.13333333333333,BRAZIL
BR,SVT,São Vicente,Sao Vicente,-23.95,-46.38333333333333,BRAZIL
BR,STS,Sento Sé,Sento Se,-9.716666666666667,-41.28333333333333,BRAZIL
BR,TPR,Taperoá,Taperoa,-13.516666666666667,-39.1,BRAZIL
BR,TMO,Timbó,Timbo,-26.85,-49.28333333333333,BRAZIL
BR,TRM,Tramandaí,Tramandai,-29.966666666666665,-50.13333333333333,BRAZIL
BR,ROA,Três Coroas,Tres Coroas,-29.533333333333335,-50.8,BRAZIL
BR,TFO,Triunfo,Triunfo,-29.95,-51.71666666666667,BRAZIL
BR,TUB,Tubarão Pt./Vitória,Tubarao Pt./Vitoria,-20.283333333333335,-40.233333333333334,BRAZIL
BR,TUT,Tutóia,Tutoia,-2.75,-42.266666666666666,BRAZIL
BR,VZC,Vera Cruz,Vera Cruz,-12.95,-38.6,BRAZIL
BR,VDC,Vila do Conde Pt/Barcarena,Vila do Conde Pt/Barcarena,-1.5333333333333332,-48.733333333333334,BRAZIL
BR,VIX,Vitória Pt,Vitoria Pt,-20.316666666666666,-40.333333333333336,BRAZIL
BS,BKC,Bock Cay,Bock Cay,23.816666666666666,-76.16666666666667,BAHAMAS
BS,CEL,Cape Eleuthera,Cape Eleuthera,24.816666666666666,-76.35,BAHAMAS
BS,CBT,Cockburn Town,Cockburn Town,24.033333333333335,-74.51666666666667,BAHAMAS
BS,COX,Congo Town,Congo Town,24.15,-77.53333333333333,BAHAMAS
BS,GOC,Gorda Cay,Gorda Cay,26.083333333333332,-77.53333333333333,BAHAMAS
BS,EXU,Great Exuma Island,Great Exuma Island,23.533333333333335,-75.83333333333333,BAHAMAS
BS,GHC,Great Harbour Cay,Great Harbour Cay,25.75,-77.83333333333333,BAHAMAS
BS,GSC,Great Stirrup Cay,Great Stirrup Cay,25.833333333333332,-77.9,BAHAMAS
BS,GTC,Green Turtle Cay,Green Turtle Cay,26.75,-77.33333333333333,BAHAMAS
BS,HBI,Harbour Island,Harbour Island,25.5,-76.63333333333334,BAHAMAS
BS,HMC,Little San Salvador,Little San Salvador,24.583333333333332,-75.91666666666667,BAHAMAS
BS,COC,Little Stirrup Cay,Little Stirrup Cay,25.816666666666666,-77.93333333333334,BAHAMAS
BS,LUC,Lucaya,Lucaya,26.516666666666666,-78.63333333333334,BAHAMAS
BS,MHH,Marsh Harbour,Marsh Harbour,26.533333333333335,-76.96666666666667,BAHAMAS
BS,NAS,Nassau,Nassau,25.083333333333332,-77.35,BAHAMAS
BS,RSD,Rock Sound,Rock Sound,24.9,-76.2,BAHAMAS
BS,SAQ,San Andros,San Andros,25.066666666666666,-78.05,BAHAMAS
BS,SML,Stella Maris,Stella Maris,23.6,-75.3,BAHAMAS
BS,TBI,The Bight,The Bight,24.316666666666666,-75.4,BAHAMAS
BS,WTD,West End,West End,26.683333333333334,-78.96666666666667,BAHAMAS
BW,DUK,Dukwi,Dukwi,-20.583333333333332,26.533333333333335,BOTSWANA
BW,MAH,Mahalapye,Mahalapye,-23.1,26.833333333333332,BOTSWANA
BY,KLK,Kletsk,Kletsk,53.05,26.616666666666667,BELARUS
BY,KYC,Kostyukovichi,Kostyukovichi,53.35,32.05,BELARUS
BY,PIK,Pinsk,Pinsk,52.11666666666667,26.083333333333332,BELARUS
BY,RYA,Rechytsa,Rechytsa,52.35,30.4,BELARUS
BY,SNM,Slonim,Slonim,53.1,25.316666666666666,BELARUS
BY,VAW,Vawkavysk,Vawkavysk,53.15,24.433333333333334,BELARUS
BZ,BAR,Barranco,Barranco,16.0,-88.91666666666667,BELIZE
BZ,BGK,Big Creek,Big Creek,16.516666666666666,-88.4,BELIZE
BZ,DGA,Dangriga,Dangriga,16.966666666666665,-88.21666666666667,BELIZE
CA,ALK,Adlavik,Adlavik,54.916666666666664,-58.916666666666664,CANADA
CA,AGU,Aguathuna,Aguathuna,48.55,-58.766666666666666,CANADA
CA,ABL,Amberly,Amberly,44.05,-81.71666666666667,CANADA
CA,ANZ,Anzac,Anzac,56.43333333333333,-111.03333333333333,CANADA
CA,ARB,Arctic Bay,Arctic Bay,73.03333333333333,-85.16666666666667,CANADA
CA,NWP,Argentia,Argentia,47.3,-54.0,CANADA
CA,ARI,Arichat,Arichat,45.516666666666666,-61.016666666666666,CANADA
CA,ARC,Arnold's Cove,Arnold's Cove,47.766666666666666,-53.983333333333334,CANADA
CA,YEK,Arviat,Arviat,61.1,-94.05,CANADA
CA,ASQ,Asquith,Asquith,52.11666666666667,-107.21666666666667,CANADA
CA,ALV,Atholville,Atholville,47.983333333333334,-66.71666666666667,CANADA
CA,AVO,Avondale,Avondale,47.416666666666664,-53.2,CANADA
CA,AVP,Avonport,Avonport,45.1,-64.25,CANADA
CA,BVE,Baie Verte,Baie Verte,49.916666666666664,-56.18333333333333,CANADA
CA,BJO,Baie-Johan-Beetz,Baie-Johan-Beetz,50.3,-62.833333333333336,CANADA
CA,BLK,Baker Lake,Baker Lake,64.31666666666666,-96.03333333333333,CANADA
CA,BAA,Bala,Bala,45.0,-79.6,CANADA
CA,BDR,Bald Rock,Bald Rock,44.46666666666667,-63.56666666666667,CANADA
CA,NTR,Bantry,Bantry,50.483333333333334,-111.73333333333333,CANADA
CA,BAN,Barrington,Barrington,43.56666666666667,-65.56666666666666,CANADA
CA,BBU,Bay Bulls,Bay Bulls,47.333333333333336,-52.833333333333336,CANADA
CA,BYR,Bay Roberts,Bay Roberts,47.583333333333336,-53.3,CANADA
CA,BST,"Bayside, Charlotte","Bayside, Charlotte",45.13333333333333,-67.11666666666666,CANADA
CA,BPO,Beach Point,Beach Point,46.016666666666666,-62.483333333333334,CANADA
CA,BEA,Beaver Cove,Beaver Cove,50.516666666666666,-126.86666666666666,CANADA
CA,BEC,Bécancour,Becancour,46.333333333333336,-72.43333333333334,CANADA
CA,BDF,Bedford,Bedford,44.71666666666667,-63.68333333333333,CANADA
CA,BLD,Belwood,Belwood,43.766666666666666,-80.33333333333333,CANADA
CA,BFR,Beresford,Beresford,47.68333333333333,-65.7,CANADA
CA,BSK,Blackstock,Blackstock,44.1,-78.78333333333333,CANADA
CA,BOB,Bobcaygeon,Bobcaygeon,44.53333333333333,-78.55,CANADA
CA,BOR,Borden,Borden,46.25,-63.7,CANADA
CA,BWD,Botwood,Botwood,49.15,-55.36666666666667,CANADA
CA,BUE,Bouctouche,Bouctouche,46.46666666666667,-64.71666666666667,CANADA
CA,BC2,Bow City,Bow City,50.416666666666664,-112.26666666666667,CANADA
CA,BNI,Bowen Island,Bowen Island,49.36666666666667,-123.33333333333333,CANADA
CA,BRD,Brentwood Bay,Brentwood Bay,48.583333333333336,-123.45,CANADA
CA,BKA,Brocket,Brocket,49.55,-113.76666666666667,CANADA
CA,BUA,Bull Arm,Bull Arm,47.833333333333336,-53.86666666666667,CANADA
CA,BUO,Burgeo,Burgeo,47.6,-57.63333333333333,CANADA
CA,BUI,Burin,Burin,47.05,-55.18333333333333,CANADA
CA,BUK,Burks Falls,Burks Falls,45.63333333333333,-79.45,CANADA
CA,BUS,Burnside,Burnside,48.7,-53.8,CANADA
CA,BIN,Burrard Inlet,Burrard Inlet,49.3,-123.18333333333334,CANADA
CA,YCB,Cambridge Bay,Cambridge Bay,69.11666666666666,-105.08333333333333,CANADA
CA,CAM,Campbell River,Campbell River,50.016666666666666,-125.25,CANADA
CA,CBF,Campbellford,Campbellford,44.3,-77.78333333333333,CANADA
CA,CAH,Canso,Canso,45.333333333333336,-61.0,CANADA
CA,CAC,Cap-Chat,Cap-Chat,49.083333333333336,-66.68333333333334,CANADA
CA,CPY,Cape Ray,Cape Ray,47.63333333333333,-59.3,CANADA
CA,CSI,Cap-St-Ignace,Cap-St-Ignace,47.03333333333333,-70.45,CANADA
CA,CBY,Carberry,Carberry,49.86666666666667,-99.35,CANADA
CA,CRB,Carbonear,Carbonear,47.733333333333334,-53.25,CANADA
CA,CMV,Carmanville,Carmanville,49.36666666666667,-54.266666666666666,CANADA
CA,CAT,Catalina,Catalina,48.516666666666666,-53.083333333333336,CANADA
CA,CIL,Change Islands,Change Islands,49.666666666666664,-54.416666666666664,CANADA
CA,PBQ,Channel-Port aux Basques,Channel-Port aux Basques,47.56666666666667,-59.15,CANADA
CA,CHA,Charlottetown,Charlottetown,46.233333333333334,-63.13333333333333,CANADA
CA,RRE,Château-Richer,Chateau-Richer,46.96666666666667,-71.01666666666667,CANADA
CA,YCS,Chesterfield Inlet,Chesterfield Inlet,63.333333333333336,-90.7,CANADA
CA,CTR,Chestermere,Chestermere,51.03333333333333,-113.81666666666666,CANADA
CA,CHT,Chéticamp,Cheticamp,46.61666666666667,-61.016666666666666,CANADA
CA,CHV,Churchill,Churchill,58.766666666666666,-94.18333333333334,CANADA
CA,CLE,Clarenville,Clarenville,48.15,-53.96666666666667,CANADA
CA,CLH,Clark's Harbour,Clark's Harbour,43.45,-65.63333333333334,CANADA
CA,CWT,Clearwater,Clearwater,51.65,-120.03333333333333,CANADA
CA,CVA,Cleveland,Cleveland,44.65,-64.0,CANADA
CA,LLF,Clifford,Clifford,43.96666666666667,-80.96666666666667,CANADA
CA,CAU,Coal Harbour,Coal Harbour,50.6,-127.58333333333333,CANADA
CA,CBG,Cobourg,Cobourg,43.96666666666667,-78.16666666666667,CANADA
CA,CYP,Coley's Point,Coley's Point,47.583333333333336,-53.266666666666666,CANADA
CA,CBC,Come By Chance,Come By Chance,47.85,-53.983333333333334,CANADA
CA,CCV,Comfort Cove,Comfort Cove,49.333333333333336,-54.86666666666667,CANADA
CA,CSJ,Coniston,Coniston,46.483333333333334,-80.85,CANADA
CA,CQT,Conquitlam,Conquitlam,49.233333333333334,-122.81666666666666,CANADA
CA,YZS,Coral Harbour,Coral Harbour,64.13333333333334,-83.16666666666667,CANADA
CA,CBK,Corner Brook,Corner Brook,48.95,-57.93333333333333,CANADA
CA,CWH,Cow Head,Cow Head,49.9,-57.78333333333333,CANADA
CA,CRA,Cranford,Cranford,49.75,-112.35,CANADA
CA,CCI,Crystal City,Crystal City,49.13333333333333,-98.95,CANADA
CA,YDH,Daniels Harbour,Daniels Harbour,50.233333333333334,-57.583333333333336,CANADA
CA,DEI,Deer Island,Deer Island,44.96666666666667,-66.96666666666667,CANADA
CA,DEL,Delta,Delta,49.083333333333336,-123.0,CANADA
CA,DSA,Denman Island,Denman Island,49.55,-124.8,CANADA
CA,DIL,Dildo,Dildo,47.55,-53.55,CANADA
CA,DWL,Dingwall,Dingwall,46.9,-60.46666666666667,CANADA
CA,DCS,Dorchester,Dorchester,42.983333333333334,-81.06666666666666,CANADA
CA,DLN,Dublin,Dublin,43.5,-81.28333333333333,CANADA
CA,ETA,East Angus,East Angus,45.483333333333334,-71.66666666666667,CANADA
CA,EDC,Edwards Cove,Edwards Cove,56.833333333333336,-62.5,CANADA
CA,XVX,Emerald Park,Emerald Park,50.733333333333334,-104.63333333333334,CANADA
CA,END,Endako,Endako,54.083333333333336,-125.01666666666667,CANADA
CA,EBY,English Bay,English Bay,49.266666666666666,-123.16666666666667,CANADA
CA,ETN,Etang-du-Nord,Etang-du-Nord,47.36666666666667,-61.93333333333333,CANADA
CA,ETZ,Etzikom,Etzikom,49.483333333333334,-111.1,CANADA
CA,FLR,Fall River,Fall River,44.81666666666667,-63.61666666666667,CANADA
CA,FOG,Fogo,Fogo,49.71666666666667,-54.28333333333333,CANADA
CA,ZFT,Forest,Forest,43.1,-82.0,CANADA
CA,FFS,Fort Frances,Fort Frances,48.6,-93.4,CANADA
CA,FKN,Fort Franklin,Fort Franklin,65.18333333333334,-123.41666666666667,CANADA
CA,FLY,Fort Langley,Fort Langley,49.166666666666664,-122.56666666666666,CANADA
CA,FMA,Fort MacKay,Fort MacKay,57.18333333333333,-111.63333333333334,CANADA
CA,FWL,Fort William,Fort William,48.4,-89.23333333333333,CANADA
CA,FOR,Fortune,Fortune,47.06666666666667,-55.833333333333336,CANADA
CA,FWS,Fraser Wharves,Fraser Wharves,50.96666666666667,-119.2,CANADA
CA,FSD,Fraser-Surrey Docks,Fraser-Surrey Docks,49.11666666666667,-122.73333333333333,CANADA
CA,FRE,Fredericton,Fredericton,45.95,-66.65,CANADA
CA,GLT,Galt,Galt,43.35,-80.3,CANADA
CA,GAN,Gander,Gander,48.95,-54.55,CANADA
CA,GPE,Gaspé,Gaspe,48.833333333333336,-64.48333333333333,CANADA
CA,YHK,Gjoa Haven,Gjoa Haven,68.61666666666666,-95.83333333333333,CANADA
CA,GLB,Glace Bay,Glace Bay,46.2,-59.96666666666667,CANADA
CA,GOO,Goose Bay,Goose Bay,53.4,-60.166666666666664,CANADA
CA,GRB,Grand Bank,Grand Bank,47.1,-55.78333333333333,CANADA
CA,GMA,Grand Manan,Grand Manan,44.7,-66.8,CANADA
CA,EDI,Grande-Digue,Grande-Digue,46.28333333333333,-64.55,CANADA
CA,YGZ,Grise Fiord,Grise Fiord,76.41666666666667,-82.95,CANADA
CA,HCC,Hacketts Cove,Hacketts Cove,44.56666666666667,-63.93333333333333,CANADA
CA,OON,Halton Hills,Halton Hills,43.61666666666667,-79.95,CANADA
CA,HMP,Hampden,Hampden,49.53333333333333,-56.86666666666667,CANADA
CA,HVR,Hanover,Hanover,44.13333333333333,-81.01666666666667,CANADA
CA,HHB,Hants Harbour,Hants Harbour,48.016666666666666,-53.266666666666666,CANADA
CA,HBR,Harbour Breton,Harbour Breton,47.483333333333334,-55.833333333333336,CANADA
CA,HRE,Harbour Grace,Harbour Grace,47.68333333333333,-53.25,CANADA
CA,HAR,Harriet Harbour,Harriet Harbour,52.3,-131.4,CANADA
CA,HON,Harwood,Harwood,44.13333333333333,-78.18333333333334,CANADA
CA,HEB,Hébertville,Hebertville,48.38333333333333,-71.68333333333334,CANADA
CA,HBN,Hebron,Hebron,58.2,-62.63333333333333,CANADA
CA,HMM,Hemmingford,Hemmingford,45.05,-73.6,CANADA
CA,HLI,Herschel Island,Herschel Island,69.56666666666666,-139.06666666666666,CANADA
CA,HIB,Hibernia,Hibernia,44.333333333333336,-64.98333333333333,CANADA
CA,HOD,Holyrood,Holyrood,47.38333333333333,-53.13333333333333,CANADA
CA,HOP,Hopedale,Hopedale,55.45,-60.21666666666667,CANADA
CA,HRF,Horsefly,Horsefly,52.333333333333336,-121.41666666666667,CANADA
CA,IGL,Igloolik,Igloolik,69.36666666666666,-81.81666666666666,CANADA
CA,SIM,Imperial,Imperial,51.333333333333336,-105.43333333333334,CANADA
CA,IAM,Indian Arm,Indian Arm,49.36666666666667,-122.86666666666666,CANADA
CA,IKM,Inkerman,Inkerman,45.03333333333333,-75.4,CANADA
CA,IVM,Invermere,Invermere,50.516666666666666,-116.03333333333333,CANADA
CA,IQL,Iqaluit,Iqaluit,63.733333333333334,-68.5,CANADA
CA,IVN,Irvine,Irvine,49.95,-110.26666666666667,CANADA
CA,ISL,Island Lake,Island Lake,53.86666666666667,-94.66666666666667,CANADA
CA,JAC,Jackson Arm,Jackson Arm,49.86666666666667,-56.8,CANADA
CA,JEG,Jemseg,Jemseg,45.81666666666667,-66.1,CANADA
CA,KLO,Kaslo,Kaslo,49.9,-116.91666666666667,CANADA
CA,KEE,Keene,Keene,44.25,-78.16666666666667,CANADA
CA,KHO,Key Harbour,Key Harbour,45.88333333333333,-80.73333333333333,CANADA
CA,KKR,Kinkora,Kinkora,5.05,-64.0,CANADA
CA,KNE,Kinnear's Mills,Kinnear's Mills,46.21666666666667,-71.38333333333334,CANADA
CA,KOV,Kovik Bay,Kovik Bay,61.55,-77.73333333333333,CANADA
CA,FCM,Kuujjuaq,Kuujjuaq,58.1,-68.4,CANADA
CA,REL,La Relance,La Relance,50.15,-66.45,CANADA
CA,LMW,La Salle,La Salle,49.7,-97.26666666666667,CANADA
CA,AAB,Lac La Biche,Lac La Biche,54.766666666666666,-111.95,CANADA
CA,LDT,Lac-Drolet,Lac-Drolet,45.71666666666667,-70.85,CANADA
CA,LSE,Lakeshore,Lakeshore,42.28333333333333,-82.73333333333333,CANADA
CA,LDS,Lansdowne,Lansdowne,52.21666666666667,-87.88333333333334,CANADA
CA,LB3,L'Anse-à-Beaufils,L'Anse-a-Beaufils,48.46666666666667,-64.3,CANADA
CA,ALO,L'Anse-au-Loup,L'Anse-au-Loup,51.516666666666666,-56.833333333333336,CANADA
CA,LZV,Lantzville,Lantzville,49.25,-124.08333333333333,CANADA
CA,LVH,Laverlochère,Laverlochere,47.416666666666664,-79.28333333333333,CANADA
CA,MHN,Les Mechins,Les Mechins,49.0,-66.96666666666667,CANADA
CA,LEV,Lévis,Levis,46.8,-71.16666666666667,CANADA
CA,LWP,Lewisporte,Lewisporte,49.233333333333334,-55.06666666666667,CANADA
CA,ILS,L'Île-des-Soeurs (Nuns Island),L'Ile-des-Soeurs (Nuns Island),45.3,-74.03333333333333,CANADA
CA,LOB,Lobo,Lobo,43.0,-81.41666666666667,CANADA
CA,LCP,Lockeport,Lockeport,43.7,-65.11666666666666,CANADA
CA,LMD,Lomond,Lomond,49.45,-57.766666666666666,CANADA
CA,LOH,Long Harbour,Long Harbour,47.43333333333333,-53.8,CANADA
CA,LOP,Long Pond,Long Pond,48.0,-55.916666666666664,CANADA
CA,LOU,Louisbourg,Louisbourg,45.916666666666664,-59.983333333333334,CANADA
CA,LWB,Lowbanks,Lowbanks,42.86666666666667,-79.45,CANADA
CA,LCV,Lower Cove,Lower Cove,48.516666666666666,-59.0,CANADA
CA,SKL,Lower Sackville,Lower Sackville,46.583333333333336,-41.733333333333334,CANADA
CA,LWH,Lower Woods Harbour,Lower Woods Harbour,43.516666666666666,-65.73333333333333,CANADA
CA,MAB,Mabou,Mabou,46.06666666666667,-61.38333333333333,CANADA
CA,MAG,Magog,Magog,45.266666666666666,-72.15,CANADA
CA,MBR,Main Brook,Main Brook,51.18333333333333,-56.016666666666666,CANADA
CA,MTI,Malartic,Malartic,48.13333333333333,-78.11666666666666,CANADA
CA,YMH,Mary's Harbour,Mary's Harbour,52.31666666666667,-55.833333333333336,CANADA
CA,MTN,Marystown,Marystown,47.166666666666664,-55.166666666666664,CANADA
CA,MFD,Meaford,Meaford,44.6,-80.6,CANADA
CA,MGH,Merigomish,Merigomish,45.61666666666667,-62.416666666666664,CANADA
CA,MSW,Metiskow,Metiskow,52.4,-110.63333333333334,CANADA
CA,MLK,Millbank,Millbank,47.05,-65.45,CANADA
CA,MNI,Milne Inlet Port,Milne Inlet Port,71.88333333333334,-80.91666666666667,CANADA
CA,MYO,Mindemoya,Mindemoya,45.733333333333334,-82.16666666666667,CANADA
CA,MSV,Minesville,Minesville,44.68333333333333,-63.36666666666667,CANADA
CA,MTO,Minto,Minto,46.083333333333336,66.06666666666666,CANADA
CA,MIB,Mission,Mission,49.13333333333333,-122.3,CANADA
CA,MOL,Mont-Louis,Mont-Louis,49.21666666666667,-65.75,CANADA
CA,MRE,Montréal-Est,Montreal-Est,45.63333333333333,-73.5,CANADA
CA,YMD,Mould Bay,Mould Bay,76.23333333333333,-119.35,CANADA
CA,MUS,Musquodoboit Harbour,Musquodoboit Harbour,44.78333333333333,-63.13333333333333,CANADA
CA,NAI,Nain,Nain,56.55,-61.68333333333333,CANADA
CA,NAK,Nakusp,Nakusp,50.233333333333334,-117.8,CANADA
CA,NAN,Nanticoke,Nanticoke,42.8,-80.06666666666666,CANADA
CA,NMT,Naramata,Naramata,49.6,-119.58333333333333,CANADA
CA,NS3,Neil's Harbour,Neil's Harbour,46.25,-60.55,CANADA
CA,NLS,Nelson,Nelson,49.483333333333334,-117.3,CANADA
CA,EWT,Newton,Newton,49.93333333333333,-98.06666666666666,CANADA
CA,NOL,Niagara-on-the-Lake,Niagara-on-the-Lake,43.25,-79.06666666666666,CANADA
CA,NCV,Norman's Cove,Norman's Cove,47.55,-53.666666666666664,CANADA
CA,NRB,North Bend,North Bend,49.88333333333333,-121.46666666666667,CANADA
CA,NDL,Notre-Dame-de-Lourdes,Notre-Dame-de-Lourdes,49.53333333333333,-98.55,CANADA
CA,NBC,Notre-Dame-du-Bon-Conseil,Notre-Dame-du-Bon-Conseil,46.0,-72.35,CANADA
CA,OAJ,Oakville,Oakville,49.916666666666664,-98.0,CANADA
CA,ODE,Odessa,Odessa,44.266666666666666,-76.71666666666667,CANADA
CA,OVR,Oliver,Oliver,49.166666666666664,-119.55,CANADA
CA,OLS,Orléans,Orleans,45.45,-75.53333333333333,CANADA
CA,PTH,Penetanguishene,Penetanguishene,44.766666666666666,-79.93333333333334,CANADA
CA,PHL,Philipsburg,Philipsburg,45.03333333333333,-73.06666666666666,CANADA
CA,PSV,Pleasantville,Pleasantville,44.333333333333336,-64.43333333333334,CANADA
CA,PHM,Pohénégamook,Pohenegamook,47.483333333333334,-69.28333333333333,CANADA
CA,PEW,Point Edward,Point Edward,43.0,-82.4,CANADA
CA,PTU,Point Tupper,Point Tupper,45.6,-61.36666666666667,CANADA
CA,PNO,Pointe Noire,Pointe Noire,50.15,-66.48333333333333,CANADA
CA,PXT,Pointe-aux-Trembles,Pointe-aux-Trembles,45.65,-73.48333333333333,CANADA
CA,POI,Pointe-Claire,Pointe-Claire,45.43333333333333,-73.73333333333333,CANADA
CA,PFT,Pointe-Fortune,Pointe-Fortune,45.56666666666667,-74.36666666666666,CANADA
CA,PAP,Port au Port,Port au Port,48.55,-58.71666666666667,CANADA
CA,PEL,Port Elgin,Port Elgin,46.03333333333333,-64.08333333333333,CANADA
CA,PMA,Port McNeill,Port McNeill,50.583333333333336,-127.1,CANADA
CA,PWE,Port Weller,Port Weller,43.21666666666667,-79.21666666666667,CANADA
CA,PAF,Port-Alfred,Port-Alfred,48.333333333333336,-70.88333333333334,CANADA
CA,PCA,Port-Cartier,Port-Cartier,50.016666666666666,-66.86666666666666,CANADA
CA,PDL,Port-Daniel,Port-Daniel,48.18333333333333,-64.98333333333333,CANADA
CA,GPD,Port-Daniel - Gascons,Port-Daniel - Gascons,48.166666666666664,-64.91666666666667,CANADA
CA,PME,Port-Menier,Port-Menier,49.81666666666667,-64.35,CANADA
CA,CQ5,Preissac,Preissac,48.4,-78.36666666666666,CANADA
CA,VOS,Prévost,Prevost,45.86666666666667,-74.08333333333333,CANADA
CA,PPT,Prospect,Prospect,44.46666666666667,-63.78333333333333,CANADA
CA,QCH,Queen Charlotte,Queen Charlotte,53.25,-132.06666666666666,CANADA
CA,RAM,Ramea,Ramea,47.516666666666666,-57.416666666666664,CANADA
CA,RIT,Rankin Inlet,Rankin Inlet,62.81666666666667,-92.06666666666666,CANADA
CA,RRC,Red Rock,Red Rock,48.95,-88.28333333333333,CANADA
CA,RDL,Rivière-du-Loup,Riviere-du-Loup,47.833333333333336,-69.53333333333333,CANADA
CA,RTB,Robert's Bank,Robert's Bank,49.06666666666667,-123.16666666666667,CANADA
CA,RSV,Robertsonville,Robertsonville,46.13333333333333,-71.21666666666667,CANADA
CA,RBN,Robinsons,Robinsons,48.25,-58.78333333333333,CANADA
CA,GNN,Rockport,Rockport,44.55,-76.26666666666667,CANADA
CA,RCD,Rockwood,Rockwood,43.61666666666667,-80.13333333333334,CANADA
CA,ABR,Rocky View County,Rocky View County,51.18333333333333,-113.93333333333334,CANADA
CA,ROD,Roddickton,Roddickton,50.85,-56.11666666666667,CANADA
CA,RPO,Rossport,Rossport,48.833333333333336,-87.51666666666667,CANADA
CA,SAG,Saguenay,Saguenay,48.416666666666664,-71.06666666666666,CANADA
CA,S8A,Saint Albert,Saint Albert,53.63333333333333,-113.63333333333334,CANADA
CA,SAT,Saint-Anthony,Saint-Anthony,51.38333333333333,-55.6,CANADA
CA,STD,Saint-Armand,Saint-Armand,45.016666666666666,-73.03333333333333,CANADA
CA,SAU,Saint-Augustin,Saint-Augustin,51.233333333333334,-58.65,CANADA
CA,BOJ,Saint-Bruno-Lac-Saint-Jean,Saint-Bruno-Lac-Saint-Jean,48.46666666666667,-71.66666666666667,CANADA
CA,SCA,Saint-Catharines,Saint-Catharines,43.166666666666664,-79.23333333333333,CANADA
CA,ZCR,Saint-Charles-sur-Richelieu,Saint-Charles-sur-Richelieu,45.68333333333333,-73.18333333333334,CANADA
CA,SCP,Saint-Christophe-d'Arthabaska,Saint-Christophe-d'Arthabaska,46.03333333333333,-71.91666666666667,CANADA
CA,SDN,Saint-Damien-de-Brandon,Saint-Damien-de-Brandon,46.333333333333336,-73.48333333333333,CANADA
CA,SCT,Sainte-Catherine,Sainte-Catherine,45.4,-73.58333333333333,CANADA
CA,SFI,Sainte-Famille,Sainte-Famille,46.96666666666667,-70.96666666666667,CANADA
CA,SEU,Saint-Eustache,Saint-Eustache,45.56666666666667,-73.9,CANADA
CA,SVD,Sainte-Victoire-de-Sorel,Sainte-Victoire-de-Sorel,46.0,-73.16666666666667,CANADA
CA,ST3,Saint-Félix-de-Kingsey,Saint-Felix-de-Kingsey,45.8,-72.18333333333334,CANADA
CA,SFX,Saint-Félix-de-Valois,Saint-Felix-de-Valois,46.166666666666664,-73.4,CANADA
CA,SFR,Saint-François-du-Lac,Saint-Francois-du-Lac,46.06666666666667,-72.83333333333333,CANADA
CA,W4C,Saint-Gédéon,Saint-Gedeon,48.483333333333334,-71.78333333333333,CANADA
CA,XZC,Saint-Isidore d'Auckland,Saint-Isidore d'Auckland,45.266666666666666,-71.51666666666667,CANADA
CA,SJB,Saint-John,Saint-John,45.266666666666666,-66.06666666666666,CANADA
CA,SJF,Saint-John's,Saint-John's,47.56666666666667,-52.733333333333334,CANADA
CA,XJH,Saint-Joseph-de-Beauce,Saint-Joseph-de-Beauce,46.3,-70.86666666666666,CANADA
CA,SLT,Saint-Lambert,Saint-Lambert,45.483333333333334,-73.5,CANADA
CA,SLW,Saint-Lawrence,Saint-Lawrence,46.9,-55.4,CANADA
CA,SMS,Saint-Marys,Saint-Marys,46.916666666666664,-53.583333333333336,CANADA
CA,SPA,Saint-Pascal,Saint-Pascal,47.53333333333333,-69.8,CANADA
CA,SRS,Saint-Peters,Saint-Peters,45.65,-60.86666666666667,CANADA
CA,SPI,Saint-Pierre,Saint-Pierre,45.45,-73.63333333333334,CANADA
CA,SRA,Saint-Roch-de-l'Achigan,Saint-Roch-de-l'Achigan,45.85,-73.58333333333333,CANADA
CA,SRO,Saint-Romuald-d'Etchemin,Saint-Romuald-d'Etchemin,46.75,-71.23333333333333,CANADA
CA,SST,Saint-Shotts,Saint-Shotts,46.63333333333333,-53.6,CANADA
CA,ZTI,Saint-Tite,Saint-Tite,46.733333333333334,-72.56666666666666,CANADA
CA,SZT,Saint-Zotique,Saint-Zotique,45.233333333333334,-74.25,CANADA
CA,SBH,Sandy Beach,Sandy Beach,48.81666666666667,-64.41666666666667,CANADA
CA,SF2,Sanford,Sanford,49.666666666666664,-97.43333333333334,CANADA
CA,SYW,Sayward,Sayward,50.35,-125.91666666666667,CANADA
CA,SED,Sedgewick,Sedgewick,52.766666666666666,-111.68333333333334,CANADA
CA,SEM,Seldom,Seldom,49.6,-54.166666666666664,CANADA
CA,SEI,Sept-Iles,Sept-Iles,50.2,-66.38333333333334,CANADA
CA,SEB,Seven Islands Bay,Seven Islands Bay,59.416666666666664,-63.75,CANADA
CA,SNV,Shaunavon,Shaunavon,49.65,-108.4,CANADA
CA,SHH,Sheet Harbour,Sheet Harbour,44.93333333333333,-62.53333333333333,CANADA
CA,SLB,Shelburne,Shelburne,44.06666666666667,-80.2,CANADA
CA,SIO,Sicamous,Sicamous,50.833333333333336,-118.98333333333333,CANADA
CA,SPN,Spaniards Bay,Spaniards Bay,47.61666666666667,-53.3,CANADA
CA,SLK,Split Lake,Split Lake,56.25,-96.1,CANADA
CA,SPD,Springdale,Springdale,49.483333333333334,-56.1,CANADA
CA,STV,Stephenville,Stephenville,48.55,-58.56666666666667,CANADA
CA,STK,Stockton,Stockton,49.583333333333336,-99.45,CANADA
CA,SYI,Stoney Island,Stoney Island,43.46666666666667,-65.56666666666666,CANADA
CA,SMT,Stormont,Stormont,45.21666666666667,-61.733333333333334,CANADA
CA,SYL,Sylvan Lake,Sylvan Lake,52.31666666666667,-114.08333333333333,CANADA
CA,THA,Thamesford,Thamesford,43.05,-80.98333333333333,CANADA
CA,TWN,Thawwassen,Thawwassen,49.0,-123.06666666666666,CANADA
CA,TTL,Thetis Island,Thetis Island,48.983333333333334,-123.68333333333334,CANADA
CA,TBY,Thornbury,Thornbury,44.55,-80.45,CANADA
CA,THH,Three Hills,Three Hills,51.7,-113.26666666666667,CANADA
CA,TCV,Tilt Cove,Tilt Cove,49.88333333333333,-55.61666666666667,CANADA
CA,TJN,Tring Jonction,Tring Jonction,46.266666666666666,-71.0,CANADA
CA,TRO,Trochu,Trochu,51.833333333333336,-113.23333333333333,CANADA
CA,TWI,Twillingate,Twillingate,49.65,-54.75,CANADA
CA,UCL,Ucluelet,Ucluelet,48.93333333333333,-125.51666666666667,CANADA
CA,UPT,Upton,Upton,45.63333333333333,-72.68333333333334,CANADA
CA,VLF,Valleyfield,Valleyfield,45.25,-74.13333333333334,CANADA
CA,VCH,Verchères,Vercheres,45.766666666666666,-73.35,CANADA
